[
  {
    "pk": 9,
    "name": "LaSalle / 90e avenue",
    "latitude": 45.417294,
    "longitude": -73.6443
  },
  {
    "pk": 10,
    "name": "Métro Angrignon (Lamont /  des Trinitaires)",
    "latitude": 45.44691,
    "longitude": -73.60363
  },
  {
    "pk": 13,
    "name": "Métro de l'Église (Ross / de l'Église)",
    "latitude": 45.462726,
    "longitude": -73.565959
  },
  {
    "pk": 17,
    "name": "Tolhurst / Fleury",
    "latitude": 45.544149,
    "longitude": -73.66752
  },
  {
    "pk": 33,
    "name": "University / des Pins",
    "latitude": 45.508203,
    "longitude": -73.580112
  },
  {
    "pk": 38,
    "name": "Métro Vendôme (de Marlowe / de Maisonneuve)",
    "latitude": 45.473868,
    "longitude": -73.604538
  },
  {
    "pk": 43,
    "name": "Métro Université de Montréal (Édouard-Montpetit / Louis-Collin)",
    "latitude": 45.50367,
    "longitude": -73.61848
  },
  {
    "pk": 65,
    "name": "Bel Air / St-Antoine",
    "latitude": 45.482778,
    "longitude": -73.584621
  },
  {
    "pk": 75,
    "name": "St-Joseph / 8e avenue Lachine",
    "latitude": 45.43155,
    "longitude": -73.67112
  },
  {
    "pk": 78,
    "name": "8e avenue / Notre-Dame Lachine",
    "latitude": 45.434898,
    "longitude": -73.670819
  },
  {
    "pk": 79,
    "name": "Victoria / 18e avenue Lachine",
    "latitude": 45.435996,
    "longitude": -73.680111
  },
  {
    "pk": 84,
    "name": "Parthenais / du Mont-Royal",
    "latitude": 45.536346,
    "longitude": -73.57131
  },
  {
    "pk": 86,
    "name": "Parc Pratt (Dunlop / Van Horne)",
    "latitude": 45.515007,
    "longitude": -73.619788
  },
  {
    "pk": 89,
    "name": "Darling / Sherbrooke",
    "latitude": 45.545328,
    "longitude": -73.556352
  },
  {
    "pk": 92,
    "name": "Métro Rosemont (de St-Vallier / Rosemont)",
    "latitude": 45.531783,
    "longitude": -73.597793
  },
  {
    "pk": 99,
    "name": "7e avenue / St-Joseph Rosemont",
    "latitude": 45.547108,
    "longitude": -73.569367
  },
  {
    "pk": 100,
    "name": "16e avenue / St-Joseph",
    "latitude": 45.55287,
    "longitude": -73.565631
  },
  {
    "pk": 125,
    "name": "Cité des Arts du Cirque (Paul Boutet / des Regrattiers)",
    "latitude": 45.559872,
    "longitude": -73.615541
  },
  {
    "pk": 126,
    "name": "Rousselot / Jarry",
    "latitude": 45.550899,
    "longitude": -73.62108
  },
  {
    "pk": 129,
    "name": "de la Salle / Ontario",
    "latitude": 45.551862,
    "longitude": -73.540228
  },
  {
    "pk": 132,
    "name": "St-Charles / Labonté",
    "latitude": 45.535266,
    "longitude": -73.51398
  },
  {
    "pk": 135,
    "name": "St-Alexandre / Ste-Catherine",
    "latitude": 45.505359,
    "longitude": -73.567741
  },
  {
    "pk": 137,
    "name": "Jeanne-d'Arc / Ontario",
    "latitude": 45.549598,
    "longitude": -73.541874
  },
  {
    "pk": 139,
    "name": "d'Orléans / Hochelaga",
    "latitude": 45.550768,
    "longitude": -73.549427
  },
  {
    "pk": 141,
    "name": "Marché Maisonneuve",
    "latitude": 45.553219,
    "longitude": -73.539782
  },
  {
    "pk": 142,
    "name": "Ontario / Sicard",
    "latitude": 45.556262,
    "longitude": -73.537441
  },
  {
    "pk": 143,
    "name": "de Ville-Marie / Ste-Catherine",
    "latitude": 45.557921,
    "longitude": -73.529147
  },
  {
    "pk": 144,
    "name": "Ontario / Viau",
    "latitude": 45.559482,
    "longitude": -73.535496
  },
  {
    "pk": 145,
    "name": "Gauthier / Papineau",
    "latitude": 45.529666,
    "longitude": -73.567336
  },
  {
    "pk": 146,
    "name": "Gauthier / de Lorimier",
    "latitude": 45.531674,
    "longitude": -73.565413
  },
  {
    "pk": 147,
    "name": "Gauthier / Parthenais",
    "latitude": 45.532926,
    "longitude": -73.56378
  },
  {
    "pk": 148,
    "name": "de Bordeaux / Marie-Anne",
    "latitude": 45.533409,
    "longitude": -73.570657
  },
  {
    "pk": 149,
    "name": "des Érables / Rachel",
    "latitude": 45.533547,
    "longitude": -73.566867
  },
  {
    "pk": 152,
    "name": "Bercy / Rachel",
    "latitude": 45.538403,
    "longitude": -73.561964
  },
  {
    "pk": 153,
    "name": "Ste-Catherine / Dezery",
    "latitude": 45.539385,
    "longitude": -73.541
  },
  {
    "pk": 154,
    "name": "Dézéry / Ontario",
    "latitude": 45.54111,
    "longitude": -73.54755
  },
  {
    "pk": 155,
    "name": "Métro Préfontaine (Moreau / Hochelaga)",
    "latitude": 45.54178,
    "longitude": -73.555714
  },
  {
    "pk": 156,
    "name": "Valois / Ste-Catherine",
    "latitude": 45.54523,
    "longitude": -73.53725
  },
  {
    "pk": 157,
    "name": "St-Germain / Hochelaga",
    "latitude": 45.543699,
    "longitude": -73.553673
  },
  {
    "pk": 158,
    "name": "Aylwin / Ontario",
    "latitude": 45.544284,
    "longitude": -73.54534
  },
  {
    "pk": 159,
    "name": "Métro Joliette  (Joliette / Hochelaga)",
    "latitude": 45.546907,
    "longitude": -73.551557
  },
  {
    "pk": 161,
    "name": "Nicolet / Sherbrooke",
    "latitude": 45.549695,
    "longitude": -73.554647
  },
  {
    "pk": 162,
    "name": "Métro Assomption (Chauveau / de l'Assomption)",
    "latitude": 45.569789,
    "longitude": -73.548081
  },
  {
    "pk": 165,
    "name": "Pierre-de-Coubertin / Langelier",
    "latitude": 45.580315,
    "longitude": -73.535314
  },
  {
    "pk": 166,
    "name": "Métro Langelier (Langelier / Sherbrooke)",
    "latitude": 45.582847,
    "longitude": -73.542476
  },
  {
    "pk": 167,
    "name": "Boyer / du Mont-Royal",
    "latitude": 45.527432,
    "longitude": -73.579917
  },
  {
    "pk": 168,
    "name": "Calixa-Lavallée / Rachel",
    "latitude": 45.527795,
    "longitude": -73.571939
  },
  {
    "pk": 169,
    "name": "de Brébeuf / du Mont-Royal",
    "latitude": 45.529408,
    "longitude": -73.578154
  },
  {
    "pk": 170,
    "name": "de Lanaudière / Marie-Anne",
    "latitude": 45.529326,
    "longitude": -73.574806
  },
  {
    "pk": 171,
    "name": "Marquette / Rachel",
    "latitude": 45.529802,
    "longitude": -73.57029
  },
  {
    "pk": 173,
    "name": "Marquette / du Mont-Royal",
    "latitude": 45.53229,
    "longitude": -73.57544
  },
  {
    "pk": 176,
    "name": "Cartier / St-Joseph",
    "latitude": 45.535828,
    "longitude": -73.57869
  },
  {
    "pk": 177,
    "name": "de Bordeaux / Gilford",
    "latitude": 45.53611,
    "longitude": -73.576287
  },
  {
    "pk": 179,
    "name": "Messier / du Mont-Royal",
    "latitude": 45.537114,
    "longitude": -73.571003
  },
  {
    "pk": 180,
    "name": "Laurier / de Bordeaux",
    "latitude": 45.537205,
    "longitude": -73.579254
  },
  {
    "pk": 181,
    "name": "Cartier / Masson",
    "latitude": 45.538021,
    "longitude": -73.583524
  },
  {
    "pk": 182,
    "name": "Chapleau / du Mont-Royal",
    "latitude": 45.53867,
    "longitude": -73.56936
  },
  {
    "pk": 183,
    "name": "de Bordeaux / Masson",
    "latitude": 45.538984,
    "longitude": -73.582445
  },
  {
    "pk": 184,
    "name": "Fullum / Gilford",
    "latitude": 45.539224,
    "longitude": -73.573837
  },
  {
    "pk": 185,
    "name": "Parc des Rapides (LaSalle / 6e avenue)",
    "latitude": 45.429471,
    "longitude": -73.593099
  },
  {
    "pk": 186,
    "name": "LaSalle / Crawford",
    "latitude": 45.437914,
    "longitude": -73.58274
  },
  {
    "pk": 187,
    "name": "Natatorium (LaSalle / Rolland)",
    "latitude": 45.444547,
    "longitude": -73.575091
  },
  {
    "pk": 188,
    "name": "Bibliothèque de Verdun (Brown / Bannantyne)",
    "latitude": 45.448262,
    "longitude": -73.577856
  },
  {
    "pk": 189,
    "name": "Beatty / de Verdun",
    "latitude": 45.45073,
    "longitude": -73.572575
  },
  {
    "pk": 190,
    "name": "Métro Monk (Allard / Beaulieu)",
    "latitude": 45.450851,
    "longitude": -73.594027
  },
  {
    "pk": 191,
    "name": "Argyle / Bannantyne",
    "latitude": 45.453319,
    "longitude": -73.576775
  },
  {
    "pk": 192,
    "name": "Argyle / de Verdun",
    "latitude": 45.453016,
    "longitude": -73.571915
  },
  {
    "pk": 193,
    "name": "Hamilton / Jolicoeur",
    "latitude": 45.456355,
    "longitude": -73.597557
  },
  {
    "pk": 194,
    "name": "5e avenue / Bannantyne",
    "latitude": 45.456365,
    "longitude": -73.57614
  },
  {
    "pk": 196,
    "name": "4e avenue / de Verdun",
    "latitude": 45.456885,
    "longitude": -73.572607
  },
  {
    "pk": 197,
    "name": "Dubois / Eadie",
    "latitude": 45.457597,
    "longitude": -73.590529
  },
  {
    "pk": 198,
    "name": "2e avenue / Wellington",
    "latitude": 45.457893,
    "longitude": -73.567528
  },
  {
    "pk": 199,
    "name": "Métro Verdun (Willibrord / de Verdun)",
    "latitude": 45.459488,
    "longitude": -73.572092
  },
  {
    "pk": 200,
    "name": "Gordon / Wellington",
    "latitude": 45.461078,
    "longitude": -73.567307
  },
  {
    "pk": 201,
    "name": "Parc St-Paul (Le Caron / Marc-Sauvalle)",
    "latitude": 45.461685,
    "longitude": -73.584039
  },
  {
    "pk": 202,
    "name": "St-Patrick / Briand",
    "latitude": 45.463397,
    "longitude": -73.596436
  },
  {
    "pk": 203,
    "name": "de l'Église / de Verdun",
    "latitude": 45.463001,
    "longitude": -73.571569
  },
  {
    "pk": 204,
    "name": "de l'Église / Bannantyne",
    "latitude": 45.463254,
    "longitude": -73.575879
  },
  {
    "pk": 205,
    "name": "Regina / de Verdun",
    "latitude": 45.467369,
    "longitude": -73.570769
  },
  {
    "pk": 206,
    "name": "Métro Lasalle (de Rushbrooke / Caisse)",
    "latitude": 45.470696,
    "longitude": -73.565422
  },
  {
    "pk": 208,
    "name": "St-Hubert / Laurier",
    "latitude": 45.52931,
    "longitude": -73.588657
  },
  {
    "pk": 209,
    "name": "Hélène-Baillargeon / St-Denis",
    "latitude": 45.52974,
    "longitude": -73.59527
  },
  {
    "pk": 211,
    "name": "de Mentana / Laurier",
    "latitude": 45.53045,
    "longitude": -73.587638
  },
  {
    "pk": 214,
    "name": "Laurier / de Brébeuf",
    "latitude": 45.532514,
    "longitude": -73.584811
  },
  {
    "pk": 215,
    "name": "Garnier / St-Joseph",
    "latitude": 45.532978,
    "longitude": -73.581222
  },
  {
    "pk": 216,
    "name": "de Lanaudière / Laurier",
    "latitude": 45.533314,
    "longitude": -73.583737
  },
  {
    "pk": 217,
    "name": "Gerry-Boulet / St-Grégoire",
    "latitude": 45.533735,
    "longitude": -73.589307
  },
  {
    "pk": 218,
    "name": "Marquette / Laurier",
    "latitude": 45.53543,
    "longitude": -73.5822
  },
  {
    "pk": 221,
    "name": "Métro Crémazie (Crémazie / Lajeunesse)",
    "latitude": 45.546408,
    "longitude": -73.638428
  },
  {
    "pk": 222,
    "name": "Clark / Fleury",
    "latitude": 45.547581,
    "longitude": -73.665234
  },
  {
    "pk": 223,
    "name": "Émile-Journault / de Chateaubriand",
    "latitude": 45.549833,
    "longitude": -73.640633
  },
  {
    "pk": 224,
    "name": "Basile-Routhier / Chabanel",
    "latitude": 45.549868,
    "longitude": -73.647657
  },
  {
    "pk": 225,
    "name": "Métro Sauvé (Berri / Sauvé)",
    "latitude": 45.550692,
    "longitude": -73.656367
  },
  {
    "pk": 226,
    "name": "Jacques-Casault / Christophe-Colomb",
    "latitude": 45.552123,
    "longitude": -73.630103
  },
  {
    "pk": 229,
    "name": "Métro Henri-Bourassa (Henri-Bourassa / Millen)",
    "latitude": 45.556751,
    "longitude": -73.667162
  },
  {
    "pk": 230,
    "name": "Chambord / Fleury",
    "latitude": 45.559828,
    "longitude": -73.658325
  },
  {
    "pk": 231,
    "name": "Hamel / Sauvé",
    "latitude": 45.560762,
    "longitude": -73.650561
  },
  {
    "pk": 232,
    "name": "Francis / Fleury",
    "latitude": 45.563872,
    "longitude": -73.655568
  },
  {
    "pk": 233,
    "name": "Marquette / Fleury",
    "latitude": 45.567352,
    "longitude": -73.653787
  },
  {
    "pk": 234,
    "name": "de l'Hôtel-de-Ville / Sherbrooke",
    "latitude": 45.514565,
    "longitude": -73.568407
  },
  {
    "pk": 235,
    "name": "Square St-Louis (du Square St-Louis / Laval)",
    "latitude": 45.516091,
    "longitude": -73.570129
  },
  {
    "pk": 236,
    "name": "Parc Jeanne-Mance (du Mont-Royal / du Parc)",
    "latitude": 45.517,
    "longitude": -73.589
  },
  {
    "pk": 237,
    "name": "de l'Esplanade / du Mont-Royal",
    "latitude": 45.518253,
    "longitude": -73.588338
  },
  {
    "pk": 238,
    "name": "Villeneuve / du Parc",
    "latitude": 45.51829,
    "longitude": -73.59235
  },
  {
    "pk": 239,
    "name": "Roy / St-Denis",
    "latitude": 45.51908,
    "longitude": -73.5727
  },
  {
    "pk": 240,
    "name": "Berri / Cherrier",
    "latitude": 45.519088,
    "longitude": -73.569509
  },
  {
    "pk": 241,
    "name": "Laval / Duluth",
    "latitude": 45.519216,
    "longitude": -73.57718
  },
  {
    "pk": 242,
    "name": "du Mont-Royal / Clark",
    "latitude": 45.51941,
    "longitude": -73.58685
  },
  {
    "pk": 243,
    "name": "Laval / Rachel",
    "latitude": 45.520179,
    "longitude": -73.579424
  },
  {
    "pk": 244,
    "name": "Villeneuve / St-Urbain",
    "latitude": 45.520188,
    "longitude": -73.590559
  },
  {
    "pk": 245,
    "name": "St-André / Cherrier",
    "latitude": 45.520524,
    "longitude": -73.567697
  },
  {
    "pk": 247,
    "name": "Roy / St-André",
    "latitude": 45.521564,
    "longitude": -73.570367
  },
  {
    "pk": 248,
    "name": "de Bullion / du Mont-Royal",
    "latitude": 45.521751,
    "longitude": -73.585268
  },
  {
    "pk": 249,
    "name": "Rivard / Rachel",
    "latitude": 45.522278,
    "longitude": -73.577591
  },
  {
    "pk": 250,
    "name": "Laval / du Mont-Royal",
    "latitude": 45.522365,
    "longitude": -73.584146
  },
  {
    "pk": 251,
    "name": "St-Hubert / Duluth",
    "latitude": 45.522426,
    "longitude": -73.574184
  },
  {
    "pk": 252,
    "name": "Berri / Rachel",
    "latitude": 45.522719,
    "longitude": -73.577204
  },
  {
    "pk": 253,
    "name": "Beaudry / Sherbrooke",
    "latitude": 45.523035,
    "longitude": -73.565395
  },
  {
    "pk": 254,
    "name": "du Parc-La Fontaine / Roy",
    "latitude": 45.522866,
    "longitude": -73.568377
  },
  {
    "pk": 256,
    "name": "Métro Mont-Royal (Rivard / du Mont-Royal)",
    "latitude": 45.524673,
    "longitude": -73.58255
  },
  {
    "pk": 257,
    "name": "Marie-Anne / St-Hubert",
    "latitude": 45.524683,
    "longitude": -73.578897
  },
  {
    "pk": 258,
    "name": "du Parc-La Fontaine / Duluth",
    "latitude": 45.524518,
    "longitude": -73.571977
  },
  {
    "pk": 259,
    "name": "Calixa-Lavallée / Sherbrooke",
    "latitude": 45.52479,
    "longitude": -73.56545
  },
  {
    "pk": 261,
    "name": "Resther / du Mont-Royal",
    "latitude": 45.525628,
    "longitude": -73.581775
  },
  {
    "pk": 262,
    "name": "de Mentana / Marie-Anne",
    "latitude": 45.526027,
    "longitude": -73.577859
  },
  {
    "pk": 263,
    "name": "Métro Laurier (Berri / St-Joseph)",
    "latitude": 45.527231,
    "longitude": -73.586726
  },
  {
    "pk": 264,
    "name": "Pontiac / Gilford",
    "latitude": 45.527009,
    "longitude": -73.585766
  },
  {
    "pk": 265,
    "name": "Émile-Duployé / Sherbrooke",
    "latitude": 45.527201,
    "longitude": -73.564729
  },
  {
    "pk": 268,
    "name": "Gilford / de Lanaudière",
    "latitude": 45.532008,
    "longitude": -73.580444
  },
  {
    "pk": 272,
    "name": "Ste-Catherine / Labelle",
    "latitude": 45.515065,
    "longitude": -73.55923
  },
  {
    "pk": 273,
    "name": "St-André / Ste-Catherine",
    "latitude": 45.516427,
    "longitude": -73.558112
  },
  {
    "pk": 274,
    "name": "Gare d'autocars de Montréal (Berri / Ontario)",
    "latitude": 45.516897,
    "longitude": -73.563949
  },
  {
    "pk": 277,
    "name": "St-André / Robin",
    "latitude": 45.518128,
    "longitude": -73.561851
  },
  {
    "pk": 278,
    "name": "St-André / Ontario",
    "latitude": 45.51889,
    "longitude": -73.56353
  },
  {
    "pk": 279,
    "name": "Montcalm / de Maisonneuve",
    "latitude": 45.519139,
    "longitude": -73.557866
  },
  {
    "pk": 281,
    "name": "Wolfe / Robin",
    "latitude": 45.519581,
    "longitude": -73.560116
  },
  {
    "pk": 285,
    "name": "Alexandre-DeSève / Ste-Catherine",
    "latitude": 45.52123,
    "longitude": -73.553861
  },
  {
    "pk": 286,
    "name": "Logan / de Champlain",
    "latitude": 45.523194,
    "longitude": -73.555843
  },
  {
    "pk": 288,
    "name": "Plessis / Ontario",
    "latitude": 45.523492,
    "longitude": -73.56073
  },
  {
    "pk": 289,
    "name": "Métro Papineau (Cartier / Ste-Catherine)",
    "latitude": 45.52353,
    "longitude": -73.55199
  },
  {
    "pk": 292,
    "name": "Jean Langlois / Fullum",
    "latitude": 45.5265,
    "longitude": -73.545753
  },
  {
    "pk": 293,
    "name": "Dorion / Ontario",
    "latitude": 45.526991,
    "longitude": -73.558212
  },
  {
    "pk": 294,
    "name": "Logan / Fullum",
    "latitude": 45.528366,
    "longitude": -73.551171
  },
  {
    "pk": 295,
    "name": "Poupart / Ste-Catherine",
    "latitude": 45.529002,
    "longitude": -73.546199
  },
  {
    "pk": 296,
    "name": "Larivière / de Lorimier",
    "latitude": 45.529134,
    "longitude": -73.559234
  },
  {
    "pk": 298,
    "name": "Logan / d'Iberville",
    "latitude": 45.53057,
    "longitude": -73.54913
  },
  {
    "pk": 299,
    "name": "Poupart / Ontario",
    "latitude": 45.531939,
    "longitude": -73.553439
  },
  {
    "pk": 302,
    "name": "Métro Frontenac (Ontario / du Havre)",
    "latitude": 45.533706,
    "longitude": -73.552179
  },
  {
    "pk": 303,
    "name": "Hochelaga / Chapleau",
    "latitude": 45.534453,
    "longitude": -73.559652
  },
  {
    "pk": 304,
    "name": "du Havre / de Rouen",
    "latitude": 45.534563,
    "longitude": -73.554787
  },
  {
    "pk": 305,
    "name": "Hogan / Ontario",
    "latitude": 45.535295,
    "longitude": -73.55116
  },
  {
    "pk": 306,
    "name": "Sherbrooke / Frontenac",
    "latitude": 45.5367,
    "longitude": -73.56081
  },
  {
    "pk": 307,
    "name": "Wurtele / de Rouen",
    "latitude": 45.537628,
    "longitude": -73.553394
  },
  {
    "pk": 309,
    "name": "University / Milton",
    "latitude": 45.506511,
    "longitude": -73.576669
  },
  {
    "pk": 310,
    "name": "University / Prince-Arthur",
    "latitude": 45.507402,
    "longitude": -73.578444
  },
  {
    "pk": 311,
    "name": "Milton / Durocher",
    "latitude": 45.508141,
    "longitude": -73.57493
  },
  {
    "pk": 312,
    "name": "Aylmer / Prince-Arthur",
    "latitude": 45.508567,
    "longitude": -73.577698
  },
  {
    "pk": 313,
    "name": "Milton / du Parc",
    "latitude": 45.509361,
    "longitude": -73.573864
  },
  {
    "pk": 314,
    "name": "Hutchison / Prince-Arthur",
    "latitude": 45.509759,
    "longitude": -73.576107
  },
  {
    "pk": 315,
    "name": "Ste-Famille / Sherbrooke",
    "latitude": 45.510072,
    "longitude": -73.570752
  },
  {
    "pk": 316,
    "name": "Prince-Arthur / du Parc",
    "latitude": 45.51059,
    "longitude": -73.57547
  },
  {
    "pk": 317,
    "name": "Métro St-Laurent (de Maisonneuve / St-Laurent)",
    "latitude": 45.51066,
    "longitude": -73.56497
  },
  {
    "pk": 318,
    "name": "Hutchison / des Pins",
    "latitude": 45.51069,
    "longitude": -73.57805
  },
  {
    "pk": 321,
    "name": "de l'Hôtel-de-Ville / Ste-Catherine",
    "latitude": 45.51166,
    "longitude": -73.562136
  },
  {
    "pk": 322,
    "name": "Milton / Clark",
    "latitude": 45.512541,
    "longitude": -73.570677
  },
  {
    "pk": 323,
    "name": "Prince-Arthur / St-Urbain",
    "latitude": 45.512587,
    "longitude": -73.573739
  },
  {
    "pk": 325,
    "name": "Ste-Famille / des Pins",
    "latitude": 45.512832,
    "longitude": -73.576888
  },
  {
    "pk": 326,
    "name": "Clark / Prince-Arthur",
    "latitude": 45.513303,
    "longitude": -73.572961
  },
  {
    "pk": 327,
    "name": "Sanguinet / de Maisonneuve",
    "latitude": 45.513405,
    "longitude": -73.562594
  },
  {
    "pk": 328,
    "name": "Guilbault / Clark",
    "latitude": 45.514108,
    "longitude": -73.57523
  },
  {
    "pk": 329,
    "name": "Metcalfe / St-Catherine",
    "latitude": 45.500832,
    "longitude": -73.572459
  },
  {
    "pk": 331,
    "name": "Duluth / de l'Esplanade",
    "latitude": 45.515092,
    "longitude": -73.581142
  },
  {
    "pk": 333,
    "name": "Parc de Bullion (de Bullion / Prince-Arthur)",
    "latitude": 45.515604,
    "longitude": -73.572135
  },
  {
    "pk": 334,
    "name": "Roy / St-Laurent",
    "latitude": 45.515616,
    "longitude": -73.575808
  },
  {
    "pk": 336,
    "name": "Duluth / St-Laurent",
    "latitude": 45.516876,
    "longitude": -73.57946
  },
  {
    "pk": 337,
    "name": "de l'Hôtel-de-Ville / Roy",
    "latitude": 45.517401,
    "longitude": -73.574605
  },
  {
    "pk": 338,
    "name": "Clark / Rachel",
    "latitude": 45.517354,
    "longitude": -73.582129
  },
  {
    "pk": 339,
    "name": "St-Dominique / Rachel",
    "latitude": 45.518593,
    "longitude": -73.581566
  },
  {
    "pk": 340,
    "name": "Vallières / St-Laurent",
    "latitude": 45.518967,
    "longitude": -73.583616
  },
  {
    "pk": 341,
    "name": "U. Concordia - Campus Loyola (Sherbrooke / West Broadway)",
    "latitude": 45.457509,
    "longitude": -73.639485
  },
  {
    "pk": 342,
    "name": "Park Row O / Sherbrooke",
    "latitude": 45.460729,
    "longitude": -73.634073
  },
  {
    "pk": 343,
    "name": "Benny / Sherbrooke",
    "latitude": 45.464877,
    "longitude": -73.626597
  },
  {
    "pk": 344,
    "name": "Grand Boulevard / Sherbrooke",
    "latitude": 45.466569,
    "longitude": -73.623295
  },
  {
    "pk": 346,
    "name": "de la Côte St-Antoine / Royal",
    "latitude": 45.468927,
    "longitude": -73.61987
  },
  {
    "pk": 347,
    "name": "de Melrose / Sherbrooke",
    "latitude": 45.46982,
    "longitude": -73.616961
  },
  {
    "pk": 348,
    "name": "de Hampton / de Monkland",
    "latitude": 45.471179,
    "longitude": -73.627002
  },
  {
    "pk": 349,
    "name": "Marcil / Sherbrooke",
    "latitude": 45.471743,
    "longitude": -73.613924
  },
  {
    "pk": 350,
    "name": "Harvard / de Monkland",
    "latitude": 45.474565,
    "longitude": -73.624036
  },
  {
    "pk": 351,
    "name": "de Monkland / Girouard",
    "latitude": 45.477107,
    "longitude": -73.621438
  },
  {
    "pk": 352,
    "name": "Notre-Dame-de-Grâce / Décarie",
    "latitude": 45.477353,
    "longitude": -73.615372
  },
  {
    "pk": 354,
    "name": "Métro Snowdon (de Westbury / Queen-Mary)",
    "latitude": 45.485385,
    "longitude": -73.628142
  },
  {
    "pk": 356,
    "name": "Canning / Notre-Dame",
    "latitude": 45.486319,
    "longitude": -73.570233
  },
  {
    "pk": 357,
    "name": "des Seigneurs / Notre-Dame",
    "latitude": 45.487723,
    "longitude": -73.569083
  },
  {
    "pk": 358,
    "name": "Métro Georges-Vanier (St-Antoine / Canning)",
    "latitude": 45.4891,
    "longitude": -73.57656
  },
  {
    "pk": 359,
    "name": "Métro Atwater (Atwater / Ste-Catherine)",
    "latitude": 45.489476,
    "longitude": -73.584566
  },
  {
    "pk": 360,
    "name": "Atwater / Sherbrooke",
    "latitude": 45.491226,
    "longitude": -73.58763
  },
  {
    "pk": 361,
    "name": "Beaucourt / de la Côte-Ste-Catherine",
    "latitude": 45.491513,
    "longitude": -73.633649
  },
  {
    "pk": 362,
    "name": "Chomedey / de Maisonneuve",
    "latitude": 45.4918,
    "longitude": -73.584006
  },
  {
    "pk": 364,
    "name": "Lincoln / du Fort",
    "latitude": 45.493034,
    "longitude": -73.583836
  },
  {
    "pk": 366,
    "name": "St-Marc / Sherbrooke",
    "latitude": 45.494514,
    "longitude": -73.583368
  },
  {
    "pk": 368,
    "name": "Jean-Brillant / de la Côte-des-Neiges",
    "latitude": 45.495415,
    "longitude": -73.622341
  },
  {
    "pk": 370,
    "name": "Mackay / de Maisonneuve",
    "latitude": 45.49683,
    "longitude": -73.57913
  },
  {
    "pk": 373,
    "name": "de Kent / de la Côte-des-Neiges",
    "latitude": 45.501449,
    "longitude": -73.633051
  },
  {
    "pk": 374,
    "name": "de Soissons / de Darlington",
    "latitude": 45.506899,
    "longitude": -73.623526
  },
  {
    "pk": 375,
    "name": "Parc Kent (de Kent / Hudson)",
    "latitude": 45.505721,
    "longitude": -73.629459
  },
  {
    "pk": 376,
    "name": "Édouard-Montpetit / de Stirling",
    "latitude": 45.50723,
    "longitude": -73.615085
  },
  {
    "pk": 377,
    "name": "Wilderton  / Van Horne",
    "latitude": 45.510142,
    "longitude": -73.624752
  },
  {
    "pk": 378,
    "name": "Tupper / du Fort",
    "latitude": 45.49123,
    "longitude": -73.580782
  },
  {
    "pk": 379,
    "name": "St-Mathieu / Sherbrooke",
    "latitude": 45.495789,
    "longitude": -73.582596
  },
  {
    "pk": 381,
    "name": "Crescent / de Maisonneuve",
    "latitude": 45.498112,
    "longitude": -73.577615
  },
  {
    "pk": 382,
    "name": "Drummond / Ste-Catherine",
    "latitude": 45.498639,
    "longitude": -73.574227
  },
  {
    "pk": 383,
    "name": "de la Cathédrale / René-Lévesque",
    "latitude": 45.499191,
    "longitude": -73.569421
  },
  {
    "pk": 384,
    "name": "Cypress / Peel",
    "latitude": 45.499325,
    "longitude": -73.571768
  },
  {
    "pk": 385,
    "name": "Drummond / de Maisonneuve",
    "latitude": 45.49947,
    "longitude": -73.57591
  },
  {
    "pk": 386,
    "name": "de la Montagne / Sherbrooke",
    "latitude": 45.499745,
    "longitude": -73.579034
  },
  {
    "pk": 387,
    "name": "Notre-Dame / Gauvin",
    "latitude": 45.500105,
    "longitude": -73.560199
  },
  {
    "pk": 388,
    "name": "Métro Peel (de Maisonneuve / Stanley)",
    "latitude": 45.50038,
    "longitude": -73.57507
  },
  {
    "pk": 389,
    "name": "de la Gauchetière / Robert-Bourassa",
    "latitude": 45.500606,
    "longitude": -73.565448
  },
  {
    "pk": 393,
    "name": "Metcalfe / de Maisonneuve",
    "latitude": 45.501715,
    "longitude": -73.57413
  },
  {
    "pk": 394,
    "name": "St-Nicolas / Place d'Youville",
    "latitude": 45.501967,
    "longitude": -73.555153
  },
  {
    "pk": 395,
    "name": "Square Victoria (Viger / du Square-Victoria)",
    "latitude": 45.50206,
    "longitude": -73.56295
  },
  {
    "pk": 396,
    "name": "Union / René-Lévesque",
    "latitude": 45.50235,
    "longitude": -73.566583
  },
  {
    "pk": 397,
    "name": "St-Jacques / St-Pierre",
    "latitude": 45.502786,
    "longitude": -73.559134
  },
  {
    "pk": 398,
    "name": "McTavish / Sherbrooke",
    "latitude": 45.502813,
    "longitude": -73.576024
  },
  {
    "pk": 400,
    "name": "du President-Kennedy / Union",
    "latitude": 45.505011,
    "longitude": -73.572028
  },
  {
    "pk": 401,
    "name": "St-Antoine / St-François-Xavier",
    "latitude": 45.504591,
    "longitude": -73.559188
  },
  {
    "pk": 403,
    "name": "Viger / Chenneville",
    "latitude": 45.505312,
    "longitude": -73.560891
  },
  {
    "pk": 404,
    "name": "Métro Place-d'Armes (Viger / St-Urbain)",
    "latitude": 45.50623,
    "longitude": -73.55976
  },
  {
    "pk": 405,
    "name": "City Councillors / du President-Kennedy",
    "latitude": 45.506251,
    "longitude": -73.571391
  },
  {
    "pk": 407,
    "name": "St-Urbain / de la Gauchetière",
    "latitude": 45.507078,
    "longitude": -73.561395
  },
  {
    "pk": 408,
    "name": "Notre-Dame / St-Gabriel",
    "latitude": 45.507144,
    "longitude": -73.555119
  },
  {
    "pk": 409,
    "name": "du Champ-de-Mars / Gosford",
    "latitude": 45.509655,
    "longitude": -73.554009
  },
  {
    "pk": 410,
    "name": "Métro Champ-de-Mars (Viger / Sanguinet)",
    "latitude": 45.510351,
    "longitude": -73.556508
  },
  {
    "pk": 411,
    "name": "St-André / St-Antoine",
    "latitude": 45.514114,
    "longitude": -73.552645
  },
  {
    "pk": 412,
    "name": "Ottawa / William",
    "latitude": 45.489727,
    "longitude": -73.564063
  },
  {
    "pk": 413,
    "name": "Joseph-Manseau / René-Lévesque",
    "latitude": 45.491687,
    "longitude": -73.576767
  },
  {
    "pk": 414,
    "name": "Notre-Dame / de la Montagne",
    "latitude": 45.493029,
    "longitude": -73.564818
  },
  {
    "pk": 418,
    "name": "Métro Lucien-L'Allier  (Lucien l'Allier / Argyle)",
    "latitude": 45.494872,
    "longitude": -73.571124
  },
  {
    "pk": 419,
    "name": "Duke / Brennan",
    "latitude": 45.495581,
    "longitude": -73.553711
  },
  {
    "pk": 421,
    "name": "de la Commune / King",
    "latitude": 45.497515,
    "longitude": -73.552571
  },
  {
    "pk": 422,
    "name": "William / St-Henri",
    "latitude": 45.498919,
    "longitude": -73.557254
  },
  {
    "pk": 425,
    "name": "Labadie / du Parc",
    "latitude": 45.519895,
    "longitude": -73.596827
  },
  {
    "pk": 427,
    "name": "de l'Esplanade / Fairmount",
    "latitude": 45.521496,
    "longitude": -73.596827
  },
  {
    "pk": 428,
    "name": "Jeanne-Mance / St-Viateur",
    "latitude": 45.523027,
    "longitude": -73.60184
  },
  {
    "pk": 429,
    "name": "Waverly / St-Viateur",
    "latitude": 45.523856,
    "longitude": -73.600127
  },
  {
    "pk": 430,
    "name": "de Bullion / St-Joseph",
    "latitude": 45.524037,
    "longitude": -73.590143
  },
  {
    "pk": 431,
    "name": "Bernard / Jeanne-Mance",
    "latitude": 45.524287,
    "longitude": -73.604973
  },
  {
    "pk": 432,
    "name": "Maguire / St-Laurent",
    "latitude": 45.524628,
    "longitude": -73.595811
  },
  {
    "pk": 433,
    "name": "Hutchison / Van Horne",
    "latitude": 45.524942,
    "longitude": -73.610606
  },
  {
    "pk": 434,
    "name": "de Gaspé / Fairmount",
    "latitude": 45.525648,
    "longitude": -73.592928
  },
  {
    "pk": 436,
    "name": "Drolet / Laurier",
    "latitude": 45.526252,
    "longitude": -73.589758
  },
  {
    "pk": 437,
    "name": "St-Dominique / St-Viateur",
    "latitude": 45.526557,
    "longitude": -73.598276
  },
  {
    "pk": 438,
    "name": "Maguire / Henri-Julien",
    "latitude": 45.527041,
    "longitude": -73.593471
  },
  {
    "pk": 439,
    "name": "Waverly / Van Horne",
    "latitude": 45.527363,
    "longitude": -73.607723
  },
  {
    "pk": 440,
    "name": "Casgrain / St-Viateur",
    "latitude": 45.527513,
    "longitude": -73.598791
  },
  {
    "pk": 441,
    "name": "de Gaspé / St-Viateur",
    "latitude": 45.527748,
    "longitude": -73.597439
  },
  {
    "pk": 442,
    "name": "Henri-Julien / du Carmel",
    "latitude": 45.527839,
    "longitude": -73.594821
  },
  {
    "pk": 443,
    "name": "St-Dominique / Bernard",
    "latitude": 45.527933,
    "longitude": -73.601223
  },
  {
    "pk": 444,
    "name": "Berlioz / de l'Île des Soeurs",
    "latitude": 45.459986,
    "longitude": -73.543956
  },
  {
    "pk": 445,
    "name": "Place du Commerce",
    "latitude": 45.46714,
    "longitude": -73.54259
  },
  {
    "pk": 447,
    "name": "Léa-Roback / Sir-Georges-Etienne-Cartier",
    "latitude": 45.471669,
    "longitude": -73.582644
  },
  {
    "pk": 448,
    "name": "Jacques-Le Ber / de la Pointe Nord",
    "latitude": 45.472503,
    "longitude": -73.539285
  },
  {
    "pk": 449,
    "name": "Ste-Émilie / Sir-Georges-Etienne-Cartier",
    "latitude": 45.472668,
    "longitude": -73.58539
  },
  {
    "pk": 450,
    "name": "Ryde / Charlevoix",
    "latitude": 45.475743,
    "longitude": -73.564601
  },
  {
    "pk": 451,
    "name": "Métro Place St-Henri (St-Ferdinand / St-Jacques)",
    "latitude": 45.477249,
    "longitude": -73.587238
  },
  {
    "pk": 452,
    "name": "Fortune / Wellington",
    "latitude": 45.477923,
    "longitude": -73.559038
  },
  {
    "pk": 453,
    "name": "Métro Charlevoix (Centre / Charlevoix)",
    "latitude": 45.478228,
    "longitude": -73.569651
  },
  {
    "pk": 455,
    "name": "Bourgeoys / Favard",
    "latitude": 45.47993,
    "longitude": -73.555921
  },
  {
    "pk": 456,
    "name": "Ropery / Augustin-Cantin",
    "latitude": 45.480914,
    "longitude": -73.56846
  },
  {
    "pk": 459,
    "name": "Duvernay / Charlevoix",
    "latitude": 45.482098,
    "longitude": -73.574876
  },
  {
    "pk": 461,
    "name": "Shearer / Centre",
    "latitude": 45.483006,
    "longitude": -73.562187
  },
  {
    "pk": 462,
    "name": "Charlevoix / Lionel-Groulx",
    "latitude": 45.483928,
    "longitude": -73.577312
  },
  {
    "pk": 463,
    "name": "Augustin-Cantin / Shearer",
    "latitude": 45.484018,
    "longitude": -73.563437
  },
  {
    "pk": 465,
    "name": "Georges-Vanier / Notre-Dame",
    "latitude": 45.485048,
    "longitude": -73.571963
  },
  {
    "pk": 466,
    "name": "Quesnel / Vinet",
    "latitude": 45.485889,
    "longitude": -73.577514
  },
  {
    "pk": 467,
    "name": "Guy / Notre-Dame",
    "latitude": 45.490042,
    "longitude": -73.567111
  },
  {
    "pk": 468,
    "name": "Young / Wellington",
    "latitude": 45.492825,
    "longitude": -73.557978
  },
  {
    "pk": 469,
    "name": "de la Commune / St-Sulpice",
    "latitude": 45.504242,
    "longitude": -73.55347
  },
  {
    "pk": 470,
    "name": "de la Commune / Place Jacques-Cartier",
    "latitude": 45.50761,
    "longitude": -73.551836
  },
  {
    "pk": 471,
    "name": "de la Commune / Berri",
    "latitude": 45.51086,
    "longitude": -73.54983
  },
  {
    "pk": 472,
    "name": "Rachel / de Brébeuf",
    "latitude": 45.52689,
    "longitude": -73.57264
  },
  {
    "pk": 474,
    "name": "Métro Acadie (de l'Acadie / Beaumont)",
    "latitude": 45.523575,
    "longitude": -73.623443
  },
  {
    "pk": 477,
    "name": "Métro de la Savane (de Sorel / Bougainville)",
    "latitude": 45.500451,
    "longitude": -73.661428
  },
  {
    "pk": 478,
    "name": "Dollard / Bernard",
    "latitude": 45.516783,
    "longitude": -73.611423
  },
  {
    "pk": 479,
    "name": "Casgrain / Maguire",
    "latitude": 45.525933,
    "longitude": -73.595253
  },
  {
    "pk": 480,
    "name": "Jeanne-Mance / Beaubien",
    "latitude": 45.52765,
    "longitude": -73.6123
  },
  {
    "pk": 481,
    "name": "Alfred Laliberté / de Poutrincourt",
    "latitude": 45.53308,
    "longitude": -73.694597
  },
  {
    "pk": 482,
    "name": "Chabanel / du Parc",
    "latitude": 45.538308,
    "longitude": -73.654884
  },
  {
    "pk": 483,
    "name": "Gare Bois-de-Boulogne",
    "latitude": 45.539726,
    "longitude": -73.677165
  },
  {
    "pk": 484,
    "name": "Laforest / Dudemaine",
    "latitude": 45.539806,
    "longitude": -73.687266
  },
  {
    "pk": 485,
    "name": "Chabanel / de l'Esplanade",
    "latitude": 45.540686,
    "longitude": -73.653376
  },
  {
    "pk": 486,
    "name": "Papineau / Émile-Journault",
    "latitude": 45.559884,
    "longitude": -73.633568
  },
  {
    "pk": 487,
    "name": "16e avenue / Jean-Talon",
    "latitude": 45.56244,
    "longitude": -73.595333
  },
  {
    "pk": 488,
    "name": "Rosemont / Viau",
    "latitude": 45.56833,
    "longitude": -73.566663
  },
  {
    "pk": 489,
    "name": "de St-Firmin / Fleury",
    "latitude": 45.570657,
    "longitude": -73.651842
  },
  {
    "pk": 490,
    "name": "41e avenue / Rosemont",
    "latitude": 45.57179,
    "longitude": -73.564315
  },
  {
    "pk": 492,
    "name": "de Lisieux / Jean-Talon",
    "latitude": 45.579349,
    "longitude": -73.581681
  },
  {
    "pk": 496,
    "name": "des Récollets / Martial",
    "latitude": 45.590892,
    "longitude": -73.640617
  },
  {
    "pk": 499,
    "name": "Liébert / Hochelaga",
    "latitude": 45.595875,
    "longitude": -73.523528
  },
  {
    "pk": 501,
    "name": "Bélanger / des Galeries d'Anjou",
    "latitude": 45.597221,
    "longitude": -73.56279
  },
  {
    "pk": 502,
    "name": "William / Robert-Bourassa",
    "latitude": 45.497165,
    "longitude": -73.55933
  },
  {
    "pk": 504,
    "name": "Gagne / LaSalle",
    "latitude": 45.422451,
    "longitude": -73.601194
  },
  {
    "pk": 505,
    "name": "Parc Highlands (Highlands / LaSalle)",
    "latitude": 45.426124,
    "longitude": -73.657416
  },
  {
    "pk": 507,
    "name": "Newman / Senkus",
    "latitude": 45.444043,
    "longitude": -73.613752
  },
  {
    "pk": 508,
    "name": "LaSalle / Godin",
    "latitude": 45.446934,
    "longitude": -73.572199
  },
  {
    "pk": 509,
    "name": "Elgar / de l'Île-des-Sœurs",
    "latitude": 45.456823,
    "longitude": -73.546804
  },
  {
    "pk": 510,
    "name": "Hickson / Wellington",
    "latitude": 45.464892,
    "longitude": -73.566998
  },
  {
    "pk": 511,
    "name": "Grand Boulevard / de Terrebonne",
    "latitude": 45.470544,
    "longitude": -73.63168
  },
  {
    "pk": 512,
    "name": "Turgeon / Notre-Dame",
    "latitude": 45.478888,
    "longitude": -73.581989
  },
  {
    "pk": 513,
    "name": "St-Jacques / des Seigneurs",
    "latitude": 45.489186,
    "longitude": -73.5719
  },
  {
    "pk": 514,
    "name": "des Bassins / du Séminaire",
    "latitude": 45.490452,
    "longitude": -73.560172
  },
  {
    "pk": 515,
    "name": "Parc Plage",
    "latitude": 45.502828,
    "longitude": -73.527793
  },
  {
    "pk": 517,
    "name": "Bibliothèque du Boisé (Thimens / Todd)",
    "latitude": 45.504635,
    "longitude": -73.704432
  },
  {
    "pk": 520,
    "name": "Métro du Collège (Cartier / Décarie)",
    "latitude": 45.508439,
    "longitude": -73.672965
  },
  {
    "pk": 521,
    "name": "Thimens / Alexis-Nihon",
    "latitude": 45.508978,
    "longitude": -73.698564
  },
  {
    "pk": 523,
    "name": "Ste-Croix / Tassé",
    "latitude": 45.519492,
    "longitude": -73.685104
  },
  {
    "pk": 524,
    "name": "O'Brien / Poirier",
    "latitude": 45.52246,
    "longitude": -73.691564
  },
  {
    "pk": 525,
    "name": "Casino de Montréal",
    "latitude": 45.506373,
    "longitude": -73.524577
  },
  {
    "pk": 526,
    "name": "Quai de la navette fluviale",
    "latitude": 45.513741,
    "longitude": -73.538382
  },
  {
    "pk": 527,
    "name": "Métro Longueuil - Université de Sherbrooke",
    "latitude": 45.523319,
    "longitude": -73.520127
  },
  {
    "pk": 528,
    "name": "Place Longueuil",
    "latitude": 45.52841,
    "longitude": -73.517166
  },
  {
    "pk": 529,
    "name": "St-Charles / Montarville",
    "latitude": 45.533682,
    "longitude": -73.515261
  },
  {
    "pk": 530,
    "name": "Collège Édouard-Montpetit (de Gentilly / de Normandie)",
    "latitude": 45.537226,
    "longitude": -73.495067
  },
  {
    "pk": 531,
    "name": "St-Charles / Grant",
    "latitude": 45.539824,
    "longitude": -73.508752
  },
  {
    "pk": 532,
    "name": "Marché Atwater",
    "latitude": 45.480208,
    "longitude": -73.577599
  },
  {
    "pk": 533,
    "name": "Atwater / Greene",
    "latitude": 45.480495,
    "longitude": -73.577827
  },
  {
    "pk": 535,
    "name": "Leman / de Chateaubriand",
    "latitude": 45.547218,
    "longitude": -73.631103
  },
  {
    "pk": 537,
    "name": "Villeneuve / St-Laurent",
    "latitude": 45.521342,
    "longitude": -73.589419
  },
  {
    "pk": 538,
    "name": "Dollard / Van Horne",
    "latitude": 45.519153,
    "longitude": -73.616469
  },
  {
    "pk": 542,
    "name": "Parc Joyce (Rockland / Lajoie)",
    "latitude": 45.515617,
    "longitude": -73.614991
  },
  {
    "pk": 543,
    "name": "Davaar / de la Côte-Ste-Catherine",
    "latitude": 45.514379,
    "longitude": -73.610871
  },
  {
    "pk": 544,
    "name": "Bloomfield / Bernard",
    "latitude": 45.520688,
    "longitude": -73.608428
  },
  {
    "pk": 546,
    "name": "Bloomfield / Van Horne",
    "latitude": 45.522586,
    "longitude": -73.612658
  },
  {
    "pk": 547,
    "name": "Métro Édouard-Montpetit (du Mont-Royal / Vincent-d'Indy)",
    "latitude": 45.510086,
    "longitude": -73.611429
  },
  {
    "pk": 548,
    "name": "Waverly / St-Zotique",
    "latitude": 45.530505,
    "longitude": -73.614708
  },
  {
    "pk": 549,
    "name": "du Mont-Royal / Augustin-Frigon",
    "latitude": 45.543763,
    "longitude": -73.56772
  },
  {
    "pk": 550,
    "name": "Drolet / Beaubien",
    "latitude": 45.533348,
    "longitude": -73.605834
  },
  {
    "pk": 551,
    "name": "Métro Beaubien (de Chateaubriand / Beaubien)",
    "latitude": 45.53536,
    "longitude": -73.603635
  },
  {
    "pk": 552,
    "name": "de Bellechasse / de St-Vallier",
    "latitude": 45.53341,
    "longitude": -73.601124
  },
  {
    "pk": 553,
    "name": "Boyer / Beaubien",
    "latitude": 45.537041,
    "longitude": -73.602026
  },
  {
    "pk": 555,
    "name": "Centre ÉPIC (St-Zotique / 40e avenue)",
    "latitude": 45.574147,
    "longitude": -73.574621
  },
  {
    "pk": 556,
    "name": "Chabot / Beaubien",
    "latitude": 45.544376,
    "longitude": -73.595645
  },
  {
    "pk": 557,
    "name": "Louis-Hébert / de Bellechasse",
    "latitude": 45.546661,
    "longitude": -73.588684
  },
  {
    "pk": 558,
    "name": "Molson / Beaubien",
    "latitude": 45.549686,
    "longitude": -73.591155
  },
  {
    "pk": 559,
    "name": "Beaubien / 8e avenue",
    "latitude": 45.553457,
    "longitude": -73.587842
  },
  {
    "pk": 561,
    "name": "29e avenue / St-Zotique",
    "latitude": 45.567766,
    "longitude": -73.579688
  },
  {
    "pk": 562,
    "name": "de la Roche /  de Bellechasse",
    "latitude": 45.537159,
    "longitude": -73.597476
  },
  {
    "pk": 563,
    "name": "Chabot / de Bellechasse",
    "latitude": 45.54257,
    "longitude": -73.592144
  },
  {
    "pk": 564,
    "name": "Louis-Hébert / Beaubien",
    "latitude": 45.548186,
    "longitude": -73.59201
  },
  {
    "pk": 565,
    "name": "Alexandra / Jean-Talon",
    "latitude": 45.532331,
    "longitude": -73.620187
  },
  {
    "pk": 566,
    "name": "Marché Jean-Talon (Henri-Julien / Jean-Talon)",
    "latitude": 45.536785,
    "longitude": -73.614888
  },
  {
    "pk": 567,
    "name": "Bélanger / St-Denis",
    "latitude": 45.53696,
    "longitude": -73.61199
  },
  {
    "pk": 568,
    "name": "de la Roche / Bélanger",
    "latitude": 45.54167,
    "longitude": -73.607604
  },
  {
    "pk": 569,
    "name": "Boyer / Bélanger",
    "latitude": 45.54006,
    "longitude": -73.60897
  },
  {
    "pk": 570,
    "name": "de Lanaudière / Bélanger",
    "latitude": 45.543651,
    "longitude": -73.60565
  },
  {
    "pk": 571,
    "name": "Cartier / Bélanger",
    "latitude": 45.546797,
    "longitude": -73.602664
  },
  {
    "pk": 572,
    "name": "des Érables / Bélanger",
    "latitude": 45.549121,
    "longitude": -73.600874
  },
  {
    "pk": 573,
    "name": "Parc Père-Marquette (Chambord / Rosemont)",
    "latitude": 45.537088,
    "longitude": -73.593219
  },
  {
    "pk": 574,
    "name": "Boyer / Jean-Talon",
    "latitude": 45.541586,
    "longitude": -73.612481
  },
  {
    "pk": 575,
    "name": "Louis-Hémon / Rosemont",
    "latitude": 45.544599,
    "longitude": -73.588223
  },
  {
    "pk": 576,
    "name": "1ère avenue / Rosemont",
    "latitude": 45.5478,
    "longitude": -73.584867
  },
  {
    "pk": 577,
    "name": "5e avenue / Rosemont",
    "latitude": 45.5499,
    "longitude": -73.583084
  },
  {
    "pk": 578,
    "name": "Marquette / des Carrières",
    "latitude": 45.538799,
    "longitude": -73.5887
  },
  {
    "pk": 580,
    "name": "Cartier / Dandurand",
    "latitude": 45.539236,
    "longitude": -73.585946
  },
  {
    "pk": 581,
    "name": "de Gaspé / Marmier",
    "latitude": 45.529686,
    "longitude": -73.601728
  },
  {
    "pk": 582,
    "name": "Fabre / St-Zotique",
    "latitude": 45.543452,
    "longitude": -73.60101
  },
  {
    "pk": 583,
    "name": "de Bordeaux / St-Zotique",
    "latitude": 45.546539,
    "longitude": -73.598665
  },
  {
    "pk": 584,
    "name": "Marmier / St-Denis",
    "latitude": 45.530871,
    "longitude": -73.598345
  },
  {
    "pk": 585,
    "name": "Louis-Hébert / St-Zotique",
    "latitude": 45.55001,
    "longitude": -73.59576
  },
  {
    "pk": 586,
    "name": "Fabre / Beaubien",
    "latitude": 45.54206,
    "longitude": -73.597873
  },
  {
    "pk": 587,
    "name": "St-Zotique / Clark",
    "latitude": 45.531401,
    "longitude": -73.612674
  },
  {
    "pk": 588,
    "name": "Parc du Pélican (2e avenue / St-Joseph)",
    "latitude": 45.544513,
    "longitude": -73.571564
  },
  {
    "pk": 589,
    "name": "St-Dominique / St-Zotique",
    "latitude": 45.532265,
    "longitude": -73.611063
  },
  {
    "pk": 590,
    "name": "de Gaspé / Dante",
    "latitude": 45.534298,
    "longitude": -73.612172
  },
  {
    "pk": 591,
    "name": "Mozart / St-Laurent",
    "latitude": 45.53318,
    "longitude": -73.61544
  },
  {
    "pk": 592,
    "name": "Boyer / St-Zotique",
    "latitude": 45.53848,
    "longitude": -73.60556
  },
  {
    "pk": 593,
    "name": "de St-Vallier / St-Zotique",
    "latitude": 45.536261,
    "longitude": -73.607546
  },
  {
    "pk": 594,
    "name": "Drolet / St-Zotique",
    "latitude": 45.534882,
    "longitude": -73.609412
  },
  {
    "pk": 597,
    "name": "12e avenue / St-Zotique",
    "latitude": 45.556867,
    "longitude": -73.589307
  },
  {
    "pk": 598,
    "name": "1ère  avenue / St-Zotique",
    "latitude": 45.551937,
    "longitude": -73.593928
  },
  {
    "pk": 600,
    "name": "Jardin Botanique (Pie-IX / Sherbrooke)",
    "latitude": 45.554947,
    "longitude": -73.555295
  },
  {
    "pk": 602,
    "name": "Hôpital Maisonneuve-Rosemont (Rosemont / Chatelain)",
    "latitude": 45.575707,
    "longitude": -73.561562
  },
  {
    "pk": 604,
    "name": "35e avenue / Beaubien",
    "latitude": 45.570081,
    "longitude": -73.573047
  },
  {
    "pk": 606,
    "name": "de Chambly / Rachel",
    "latitude": 45.549911,
    "longitude": -73.558263
  },
  {
    "pk": 607,
    "name": "10e avenue / Masson",
    "latitude": 45.550306,
    "longitude": -73.573353
  },
  {
    "pk": 608,
    "name": "d'Orléans / Masson",
    "latitude": 45.557192,
    "longitude": -73.569847
  },
  {
    "pk": 611,
    "name": "15e avenue / Masson",
    "latitude": 45.553898,
    "longitude": -73.571387
  },
  {
    "pk": 613,
    "name": "Parc J.-Arthur-Champagne (de Chambly / du Mont-Royal)",
    "latitude": 45.551584,
    "longitude": -73.561916
  },
  {
    "pk": 614,
    "name": "Omer-Lavallée / du Midway",
    "latitude": 45.545776,
    "longitude": -73.562175
  },
  {
    "pk": 615,
    "name": "Bourbonnière / du Mont-Royal",
    "latitude": 45.553571,
    "longitude": -73.560494
  },
  {
    "pk": 616,
    "name": "Cartier / Rosemont",
    "latitude": 45.541247,
    "longitude": -73.591044
  },
  {
    "pk": 619,
    "name": "St-Urbain / Beaubien",
    "latitude": 45.52951,
    "longitude": -73.61068
  },
  {
    "pk": 620,
    "name": "Ernest-Gendreau / du Mont-Royal",
    "latitude": 45.549714,
    "longitude": -73.563848
  },
  {
    "pk": 623,
    "name": "de Maisonneuve / Mansfield (nord)",
    "latitude": 45.502311000000006,
    "longitude": -73.5733635
  },
  {
    "pk": 624,
    "name": "St-Jacques / McGill",
    "latitude": 45.501441,
    "longitude": -73.560144
  },
  {
    "pk": 625,
    "name": "St-Urbain / René-Lévesque",
    "latitude": 45.507838,
    "longitude": -73.563136
  },
  {
    "pk": 626,
    "name": "de Maisonneuve / Mansfield (sud)",
    "latitude": 45.502145,
    "longitude": -73.57342700000001
  },
  {
    "pk": 627,
    "name": "Durocher / Bernard",
    "latitude": 45.522225,
    "longitude": -73.606687
  },
  {
    "pk": 628,
    "name": "La Ronde",
    "latitude": 45.521565,
    "longitude": -73.535332
  },
  {
    "pk": 629,
    "name": "Aylmer / Sherbrooke",
    "latitude": 45.506587,
    "longitude": -73.573299
  },
  {
    "pk": 630,
    "name": "Querbes / Laurier",
    "latitude": 45.51754,
    "longitude": -73.597832
  },
  {
    "pk": 631,
    "name": "26e avenue / Beaubien",
    "latitude": 45.564944,
    "longitude": -73.577639
  },
  {
    "pk": 633,
    "name": "Jogues / Allard",
    "latitude": 45.45002,
    "longitude": -73.600306
  },
  {
    "pk": 634,
    "name": "Mackay / Ste-Catherine",
    "latitude": 45.495709,
    "longitude": -73.576952
  },
  {
    "pk": 635,
    "name": "19e avenue / St-Zotique",
    "latitude": 45.561594,
    "longitude": -73.585643
  },
  {
    "pk": 636,
    "name": "de Maisonneuve / Greene",
    "latitude": 45.486971,
    "longitude": -73.589293
  },
  {
    "pk": 637,
    "name": "Hillside / Ste-Catherine",
    "latitude": 45.482826,
    "longitude": -73.590843
  },
  {
    "pk": 638,
    "name": "Victoria / de Maisonneuve",
    "latitude": 45.477429,
    "longitude": -73.600169
  },
  {
    "pk": 639,
    "name": "Victoria Hall",
    "latitude": 45.481291,
    "longitude": -73.60033
  },
  {
    "pk": 641,
    "name": "2e avenue / Jean-Rivard",
    "latitude": 45.562509,
    "longitude": -73.61656
  },
  {
    "pk": 642,
    "name": "Henri-Julien / de Castelnau",
    "latitude": 45.537891,
    "longitude": -73.618215
  },
  {
    "pk": 645,
    "name": "Louis-Hébert / Bélanger",
    "latitude": 45.551585,
    "longitude": -73.599165
  },
  {
    "pk": 646,
    "name": "Gary-Carter / St-Laurent",
    "latitude": 45.5359,
    "longitude": -73.622443
  },
  {
    "pk": 647,
    "name": "St-Dominique / Gounod",
    "latitude": 45.538738,
    "longitude": -73.628022
  },
  {
    "pk": 648,
    "name": "Guizot / St-Laurent",
    "latitude": 45.539663,
    "longitude": -73.634475
  },
  {
    "pk": 650,
    "name": "Drolet / Gounod",
    "latitude": 45.540951,
    "longitude": -73.626375
  },
  {
    "pk": 651,
    "name": "de Gaspé / Jarry",
    "latitude": 45.54078,
    "longitude": -73.630401
  },
  {
    "pk": 652,
    "name": "Guizot / St-Denis",
    "latitude": 45.543424,
    "longitude": -73.632462
  },
  {
    "pk": 653,
    "name": "de Gaspé / de Liège",
    "latitude": 45.542485,
    "longitude": -73.636342
  },
  {
    "pk": 654,
    "name": "du Rosaire / St-Hubert",
    "latitude": 45.544819,
    "longitude": -73.62151
  },
  {
    "pk": 656,
    "name": "de Chateaubriand / Jarry",
    "latitude": 45.545955,
    "longitude": -73.626992
  },
  {
    "pk": 657,
    "name": "de la Roche / Everett",
    "latitude": 45.544867,
    "longitude": -73.614841
  },
  {
    "pk": 658,
    "name": "Marquette / Villeray",
    "latitude": 45.550684,
    "longitude": -73.615293
  },
  {
    "pk": 659,
    "name": "St-Dominique / Jean-Talon",
    "latitude": 45.535248,
    "longitude": -73.617564
  },
  {
    "pk": 661,
    "name": "Métro St-Michel (Shaughnessy / St-Michel)",
    "latitude": 45.559199,
    "longitude": -73.599658
  },
  {
    "pk": 663,
    "name": "d'Outremont / Ogilvy",
    "latitude": 45.52687,
    "longitude": -73.626723
  },
  {
    "pk": 664,
    "name": "de Normanville / Villeray",
    "latitude": 45.54717,
    "longitude": -73.618041
  },
  {
    "pk": 665,
    "name": "Lajeunesse / Villeray",
    "latitude": 45.542119,
    "longitude": -73.622547
  },
  {
    "pk": 669,
    "name": "de Bordeaux / Jean-Talon",
    "latitude": 45.549755,
    "longitude": -73.605566
  },
  {
    "pk": 674,
    "name": "Drolet / Jarry",
    "latitude": 45.541955,
    "longitude": -73.629942
  },
  {
    "pk": 675,
    "name": "Clark / de Liège",
    "latitude": 45.539984,
    "longitude": -73.638135
  },
  {
    "pk": 676,
    "name": "Boyer / Rosemont",
    "latitude": 45.534136,
    "longitude": -73.595478
  },
  {
    "pk": 677,
    "name": "Bernard / St-Urbain",
    "latitude": 45.526267,
    "longitude": -73.603191
  },
  {
    "pk": 680,
    "name": "Hôpital Santa Cabrini (St-Zotique / Jeanne-Jugan)",
    "latitude": 45.579325,
    "longitude": -73.570504
  },
  {
    "pk": 684,
    "name": "Jeanne-Mance / René-Lévesque",
    "latitude": 45.506371,
    "longitude": -73.564201
  },
  {
    "pk": 687,
    "name": "Metcalfe / du Square-Dorchester",
    "latitude": 45.500208,
    "longitude": -73.571138
  },
  {
    "pk": 691,
    "name": "Métro Honoré-Beaugrand (Sherbrooke / Honoré-Beaugrand)",
    "latitude": 45.596797,
    "longitude": -73.535179
  },
  {
    "pk": 692,
    "name": "Paré / Mountain Sights",
    "latitude": 45.4981,
    "longitude": -73.652942
  },
  {
    "pk": 693,
    "name": "Métro Radisson (Sherbrooke / des Groseilliers)",
    "latitude": 45.589175,
    "longitude": -73.539656
  },
  {
    "pk": 694,
    "name": "Graham / Brookfield",
    "latitude": 45.520222,
    "longitude": -73.629856
  },
  {
    "pk": 696,
    "name": "Hutchison / Beaubien",
    "latitude": 45.526058,
    "longitude": -73.612969
  },
  {
    "pk": 699,
    "name": "St-Jean-Baptiste / René-Lévesque",
    "latitude": 45.641557,
    "longitude": -73.500375
  },
  {
    "pk": 701,
    "name": "du Tricentenaire / Prince-Albert",
    "latitude": 45.649546,
    "longitude": -73.491916
  },
  {
    "pk": 702,
    "name": "de Maisonneuve / Aylmer (est)",
    "latitude": 45.505386,
    "longitude": -73.570432
  },
  {
    "pk": 703,
    "name": "du Souvenir / Chomedey",
    "latitude": 45.551886,
    "longitude": -73.74444
  },
  {
    "pk": 704,
    "name": "Métro Montmorency",
    "latitude": 45.558109,
    "longitude": -73.719598
  },
  {
    "pk": 705,
    "name": "Parc St-Claude (7e avenue / 8e rue)",
    "latitude": 45.562668,
    "longitude": -73.692362
  },
  {
    "pk": 706,
    "name": "Métro Cartier",
    "latitude": 45.56003,
    "longitude": -73.681336
  },
  {
    "pk": 749,
    "name": "Atateken / du Square Amherst",
    "latitude": 45.5206338,
    "longitude": -73.563906
  },
  {
    "pk": 750,
    "name": "Métro Sherbrooke (de Rigaud / St-Denis)",
    "latitude": 45.5179989,
    "longitude": -73.5681841
  },
  {
    "pk": 752,
    "name": "Métro Bonaventure (de la Gauchetière / de la Cathédrale)",
    "latitude": 45.4983122,
    "longitude": -73.567256
  },
  {
    "pk": 753,
    "name": "Mansfield / Ste-Catherine",
    "latitude": 45.5013987,
    "longitude": -73.5717863
  },
  {
    "pk": 756,
    "name": "Notre-Dame / Jean-d'Estrées",
    "latitude": 45.4942598,
    "longitude": -73.5638181
  },
  {
    "pk": 757,
    "name": "de Gaspé / Beaubien",
    "latitude": 45.5319579,
    "longitude": -73.607001
  },
  {
    "pk": 759,
    "name": "Ann / Wellington",
    "latitude": 45.4945271,
    "longitude": -73.5567525
  },
  {
    "pk": 760,
    "name": "St-Dominique / de Bellechasse",
    "latitude": 45.5295036,
    "longitude": -73.6048646
  },
  {
    "pk": 761,
    "name": "St-Dominique / du Mont-Royal",
    "latitude": 45.5205595,
    "longitude": -73.5858203
  },
  {
    "pk": 762,
    "name": "St-Dominique / Napoléon",
    "latitude": 45.5166644,
    "longitude": -73.5772204
  },
  {
    "pk": 763,
    "name": "Métro Jean-Talon (Berri / Jean-Talon)",
    "latitude": 45.5390004,
    "longitude": -73.614251
  },
  {
    "pk": 764,
    "name": "St-Dominique / Laurier",
    "latitude": 45.5236149,
    "longitude": -73.5924574
  },
  {
    "pk": 765,
    "name": "Faillon / St-Denis",
    "latitude": 45.5398641,
    "longitude": -73.6203128
  },
  {
    "pk": 767,
    "name": "de Gaspé / Villeray",
    "latitude": 45.5388872,
    "longitude": -73.623907
  },
  {
    "pk": 771,
    "name": "Métro Parc  (Hutchison / Ogilvy)",
    "latitude": 45.5303513,
    "longitude": -73.6243924
  },
  {
    "pk": 774,
    "name": "Parc St-Henri (Laporte / Guay)",
    "latitude": 45.4801338,
    "longitude": -73.5859081
  },
  {
    "pk": 775,
    "name": "St-Hubert / St-Joseph",
    "latitude": 45.5280879,
    "longitude": -73.5858625
  },
  {
    "pk": 776,
    "name": "de la Côte St-Antoine / Argyle",
    "latitude": 45.486241,
    "longitude": -73.5957277
  },
  {
    "pk": 778,
    "name": "Métro Jolicoeur (de Sève / Drake)",
    "latitude": 45.4560855,
    "longitude": -73.5819371
  },
  {
    "pk": 779,
    "name": "de Bleury / de Maisonneuve",
    "latitude": 45.5070965,
    "longitude": -73.5684416
  },
  {
    "pk": 780,
    "name": "LaSalle / 80e avenue",
    "latitude": 45.4157687,
    "longitude": -73.6379242
  },
  {
    "pk": 781,
    "name": "Kirkfield / de Chambois",
    "latitude": 45.5129332,
    "longitude": -73.6338902
  },
  {
    "pk": 784,
    "name": "de la Côte St-Paul / St-Ambroise",
    "latitude": 45.4676657,
    "longitude": -73.5939178
  },
  {
    "pk": 785,
    "name": "des Jockeys / Décarie",
    "latitude": 45.4940443,
    "longitude": -73.6544949
  },
  {
    "pk": 786,
    "name": "LaSalle / 37e avenue",
    "latitude": 45.4163102,
    "longitude": -73.6129159
  },
  {
    "pk": 788,
    "name": "Bennett / Pierre-de-Coubertin",
    "latitude": 45.5581597,
    "longitude": -73.5484001
  },
  {
    "pk": 790,
    "name": "Métro de Castelnau (de Castelnau / St-Laurent)",
    "latitude": 45.5357088,
    "longitude": -73.6196235
  },
  {
    "pk": 834,
    "name": "Graham / Wicksteed",
    "latitude": 45.5169365,
    "longitude": -73.640483
  },
  {
    "pk": 835,
    "name": "Melville / de Maisonneuve",
    "latitude": 45.4818402,
    "longitude": -73.595379
  },
  {
    "pk": 837,
    "name": "de Maisonneuve / Aylmer (ouest)",
    "latitude": 45.505063,
    "longitude": -73.5706812
  },
  {
    "pk": 838,
    "name": "Drolet / Marie-Anne",
    "latitude": 45.5224026,
    "longitude": -73.5811767
  },
  {
    "pk": 841,
    "name": "de Laprairie / Centre",
    "latitude": 45.4813667,
    "longitude": -73.5643189
  },
  {
    "pk": 842,
    "name": "Graham / Kindersley",
    "latitude": 45.51405,
    "longitude": -73.6472556
  },
  {
    "pk": 843,
    "name": "Glengarry / Graham",
    "latitude": 45.50919,
    "longitude": -73.6603206
  },
  {
    "pk": 845,
    "name": "Garnier / St-Grégoire",
    "latitude": 45.5358344,
    "longitude": -73.5870212
  },
  {
    "pk": 846,
    "name": "Chabot / Villeray",
    "latitude": 45.5522894,
    "longitude": -73.6130065
  },
  {
    "pk": 856,
    "name": "Smith / Peel",
    "latitude": -1,
    "longitude": -1
  },
  {
    "pk": 858,
    "name": "Henri-Julien / de Bellechasse",
    "latitude": 45.5295036,
    "longitude": -73.6048646
  },
  {
    "pk": 859,
    "name": "Campus MIL (Outremont / Thérèse-Lavoie Roux)",
    "latitude": 45.5231722,
    "longitude": -73.6180971
  },
  {
    "pk": 860,
    "name": "Parc Jean-Drapeau (Chemin Macdonald)",
    "latitude": 45.5128006,
    "longitude": -73.5311159
  },
  {
    "pk": 864,
    "name": "Métro Villa-Maria (de Monkland / Décarie)",
    "latitude": 45.4789684,
    "longitude": -73.6195993
  },
  {
    "pk": 865,
    "name": "Jeanne-Mance / Laurier",
    "latitude": 45.5201249,
    "longitude": -73.5952138
  },
  {
    "pk": 866,
    "name": "des Ormeaux / Notre-Dame",
    "latitude": 45.5992655,
    "longitude": -73.5122607
  },
  {
    "pk": 869,
    "name": "Christophe-Colomb / St-Joseph",
    "latitude": 45.5303649,
    "longitude": -73.5843927
  },
  {
    "pk": 876,
    "name": "Plessis / Logan",
    "latitude": 45.5217675,
    "longitude": -73.5571025
  },
  {
    "pk": 884,
    "name": "de Castelnau / Lajeunesse",
    "latitude": 45.5403962,
    "longitude": -73.6168179
  },
  {
    "pk": 886,
    "name": "Fullum / Holt",
    "latitude": 45.5439195,
    "longitude": -73.5842489
  },
  {
    "pk": 887,
    "name": "3e avenue / Holt",
    "latitude": 45.5480035,
    "longitude": -73.5813899
  },
  {
    "pk": 888,
    "name": "Mozart / Waverly",
    "latitude": 45.5315651,
    "longitude": -73.6169464
  },
  {
    "pk": 890,
    "name": "Boucher / St-Denis",
    "latitude": 45.5278492,
    "longitude": -73.5918613
  },
  {
    "pk": 891,
    "name": "5e avenue / Masson",
    "latitude": 45.5475583,
    "longitude": -73.5754719
  },
  {
    "pk": 892,
    "name": "des Érables / Dandurand",
    "latitude": 45.5413694,
    "longitude": -73.583974
  },
  {
    "pk": 895,
    "name": "Bloomfield / Jean-Talon",
    "latitude": 45.5274603,
    "longitude": -73.6241752
  },
  {
    "pk": 898,
    "name": "Louis-Hémon / Jean-Talon",
    "latitude": 45.5517743,
    "longitude": -73.6034784
  },
  {
    "pk": 901,
    "name": "Notre-Dame-de-Grâce / Westmount",
    "latitude": 45.4804701,
    "longitude": -73.6112161
  },
  {
    "pk": 903,
    "name": "Sherbrooke / Vignal",
    "latitude": 45.4898298,
    "longitude": -73.5896777
  },
  {
    "pk": 906,
    "name": "Parc Ludger-Duvernay (St-André / St-Hubert)",
    "latitude": 45.5314746,
    "longitude": -73.5924205
  },
  {
    "pk": 908,
    "name": "Lajeunesse / de Liège",
    "latitude": 45.5455805,
    "longitude": -73.6349
  },
  {
    "pk": 910,
    "name": "Fullum / Marie-Anne",
    "latitude": 45.5365054,
    "longitude": -73.5680392
  },
  {
    "pk": 911,
    "name": "Rose-de-Lima / Workman",
    "latitude": 45.4802642,
    "longitude": -73.5809936
  },
  {
    "pk": 912,
    "name": "Grey / Sherbrooke",
    "latitude": 45.4763443,
    "longitude": -73.6062594
  },
  {
    "pk": 913,
    "name": "Parc Benny (Benny / de Monkland)",
    "latitude": 45.4669357,
    "longitude": -73.6315311
  },
  {
    "pk": 914,
    "name": "Earnscliffe / Queen-Mary",
    "latitude": 45.4818451,
    "longitude": -73.6303738
  },
  {
    "pk": 915,
    "name": "McLynn / Plamondon",
    "latitude": 45.4891131,
    "longitude": -73.6470129
  },
  {
    "pk": 916,
    "name": "St-Cyril / Wiseman",
    "latitude": 45.5208548,
    "longitude": -73.6157396
  },
  {
    "pk": 917,
    "name": "Boyer / Everett",
    "latitude": 45.5432845,
    "longitude": -73.6162861
  },
  {
    "pk": 919,
    "name": "des Récollets / McGill",
    "latitude": 45.5008765,
    "longitude": -73.5590056
  },
  {
    "pk": 921,
    "name": "Fullum / de Rouen",
    "latitude": 45.5321322,
    "longitude": -73.5587601
  },
  {
    "pk": 922,
    "name": "Aréna Rodrigue-Gilbert (du Tricentenaire / de Montigny)",
    "latitude": 45.6514058,
    "longitude": -73.5004127
  },
  {
    "pk": 923,
    "name": "Fullum / Ontario",
    "latitude": 45.5303174,
    "longitude": -73.5548669
  },
  {
    "pk": 925,
    "name": "la Fontaine / Alexandre-de-Sève",
    "latitude": 45.5233037,
    "longitude": -73.5579997
  },
  {
    "pk": 926,
    "name": "Cégep Marie-Victorin",
    "latitude": 45.6174998,
    "longitude": -73.6060113
  },
  {
    "pk": 927,
    "name": "Hôpital Sacré-Coeur (Forbes)",
    "latitude": 45.5319436,
    "longitude": -73.7136054
  },
  {
    "pk": 928,
    "name": "Place Rodolphe-Rousseau (Gohier / Édouard-Laurin)",
    "latitude": 45.5129939,
    "longitude": -73.6824985
  },
  {
    "pk": 929,
    "name": "Molson / William-Tremblay",
    "latitude": 45.5415485,
    "longitude": -73.5650124
  },
  {
    "pk": 930,
    "name": "Messier / St-Joseph",
    "latitude": 45.5394606,
    "longitude": -73.5760564
  },
  {
    "pk": 931,
    "name": "Ateliers municipaux de St-Laurent (Cavendish / Poirier)",
    "latitude": 45.5061758,
    "longitude": -73.7111861
  },
  {
    "pk": 932,
    "name": "Centre des loisirs (Tassé / Grenet)",
    "latitude": 45.5147343,
    "longitude": -73.691449
  },
  {
    "pk": 934,
    "name": "McKenna / Édouard-Montpetit",
    "latitude": 45.5011651,
    "longitude": -73.6205475
  },
  {
    "pk": 935,
    "name": "St-Catherine / St-Laurent",
    "latitude": 45.5099315,
    "longitude": -73.5638067
  },
  {
    "pk": 936,
    "name": "Du Quesne / Pierre-de-Coubertin",
    "latitude": 45.5750536,
    "longitude": -73.5389322
  },
  {
    "pk": 937,
    "name": "Ste-Claire / Pierre-Tétreault",
    "latitude": 45.6019133,
    "longitude": -73.5244185
  },
  {
    "pk": 938,
    "name": "Richmond / des Bassins",
    "latitude": 45.4875216,
    "longitude": -73.565003
  },
  {
    "pk": 941,
    "name": "André-Laurendeau / Rachel",
    "latitude": 45.5428981,
    "longitude": -73.561846
  },
  {
    "pk": 942,
    "name": "des Érables / Laurier",
    "latitude": 45.5384608,
    "longitude": -73.5776791
  },
  {
    "pk": 943,
    "name": "Clark / St-Viateur",
    "latitude": 45.5251603,
    "longitude": -73.5992467
  },
  {
    "pk": 944,
    "name": "Robin / 15e rue",
    "latitude": 45.5594955,
    "longitude": -73.6989176
  },
  {
    "pk": 945,
    "name": "Legrand / Cartier",
    "latitude": 45.552298,
    "longitude": -73.7073827
  },
  {
    "pk": 946,
    "name": "Parc nature de l'Île-de-la-Visitation (Gouin / de Bruchési)",
    "latitude": 45.5783318,
    "longitude": -73.655954
  },
  {
    "pk": 948,
    "name": "Parc Henri-Julien (Legendre / Henri-Julien)",
    "latitude": 45.5460356,
    "longitude": -73.6465985
  },
  {
    "pk": 950,
    "name": "Place d'Youville / McGill",
    "latitude": 45.4999647,
    "longitude": -73.5561544
  },
  {
    "pk": 954,
    "name": "Ste-Catherine / Union",
    "latitude": 45.5036663,
    "longitude": -73.5695761
  },
  {
    "pk": 955,
    "name": "St-Christophe / René-Lévesque",
    "latitude": 45.5149464,
    "longitude": -73.5562329
  },
  {
    "pk": 956,
    "name": "Parc de Dieppe",
    "latitude": 45.5018635,
    "longitude": -73.543961
  },
  {
    "pk": 958,
    "name": "Panet / Ste-Catherine",
    "latitude": 45.5199567,
    "longitude": -73.5548166
  },
  {
    "pk": 961,
    "name": "Terminus Newman (Airlie / Lafleur)",
    "latitude": 45.4250597,
    "longitude": -73.6495992
  },
  {
    "pk": 962,
    "name": "2e avenue / Centrale",
    "latitude": 45.4328944,
    "longitude": -73.5968529
  },
  {
    "pk": 963,
    "name": "Travaux publics LaSalle (Cordner / Léger)",
    "latitude": 45.4452719,
    "longitude": -73.6244836
  },
  {
    "pk": 964,
    "name": "Lapierre / Serge",
    "latitude": 45.4385441,
    "longitude": -73.6202163
  },
  {
    "pk": 965,
    "name": "Brittany / Ainsley",
    "latitude": 45.5258899,
    "longitude": -73.6500344
  },
  {
    "pk": 966,
    "name": "Gloria / Dollard",
    "latitude": 45.429711,
    "longitude": -73.6338834
  },
  {
    "pk": 971,
    "name": "Parc Loyola (Somerled / Doherty)",
    "latitude": 45.460023,
    "longitude": -73.644442
  },
  {
    "pk": 972,
    "name": "Parc Van Horne (de la Peltrie / de Westbury)",
    "latitude": 45.4904723,
    "longitude": -73.6385324
  },
  {
    "pk": 974,
    "name": "Parc de la Confédération (Fielding / West Hill)",
    "latitude": 45.471882,
    "longitude": -73.6400217
  },
  {
    "pk": 976,
    "name": "REV (Souligny / Desmarteau)",
    "latitude": 45.6046208,
    "longitude": -73.5159963
  },
  {
    "pk": 979,
    "name": "des Ormeaux / de Grosbois",
    "latitude": 45.6059017,
    "longitude": -73.5343695
  },
  {
    "pk": 980,
    "name": "Champdoré / de Lorimier",
    "latitude": 45.5668693,
    "longitude": -73.6410168
  },
  {
    "pk": 983,
    "name": "Egan / Laurendeau",
    "latitude": 45.4528579,
    "longitude": -73.5892488
  },
  {
    "pk": 984,
    "name": "Dorion / Rachel",
    "latitude": 45.531634,
    "longitude": -73.5682458
  },
  {
    "pk": 985,
    "name": "Parc Villeray (Christophe-Colomb / Jarry)",
    "latitude": 45.5480925,
    "longitude": -73.624261
  },
  {
    "pk": 986,
    "name": "de Léry / Sherbrooke",
    "latitude": 45.5409997,
    "longitude": -73.5582626
  },
  {
    "pk": 987,
    "name": "St-Charles / Thomas-Keefer",
    "latitude": 45.477605,
    "longitude": -73.573775
  },
  {
    "pk": 988,
    "name": "Monsabré / Boileau",
    "latitude": 45.5717982,
    "longitude": -73.5415497
  },
  {
    "pk": 989,
    "name": "Parc Georges St-Pierre (Oxford / Upper Lachine)",
    "latitude": 45.4689119,
    "longitude": -73.6095089
  },
  {
    "pk": 993,
    "name": "de Grosbois / Duchesneau",
    "latitude": 45.6112307,
    "longitude": -73.5312416
  },
  {
    "pk": 994,
    "name": "Parc Labelle (LaSalle / Henri-Duhamel)",
    "latitude": 45.472561,
    "longitude": -73.5699892
  },
  {
    "pk": 995,
    "name": "8e avenue / Everett",
    "latitude": 45.5648113,
    "longitude": -73.5958041
  },
  {
    "pk": 996,
    "name": "Lacombe / Victoria",
    "latitude": 45.490628,
    "longitude": -73.628878
  },
  {
    "pk": 997,
    "name": "Parc MacDonald (Clanranald / Isabella)",
    "latitude": 45.4826927,
    "longitude": -73.6348128
  },
  {
    "pk": 998,
    "name": "St-Ambroise / Louis-Cyr",
    "latitude": 45.4751933,
    "longitude": -73.5809433
  },
  {
    "pk": 999,
    "name": "Parc de Beauséjour (Gouin / Henri-d'Arles)",
    "latitude": 45.526765,
    "longitude": -73.730423
  },
  {
    "pk": 1000,
    "name": "Parc Champdoré (Champdoré / de Lille)",
    "latitude": 45.5691762,
    "longitude": -73.6362934
  },
  {
    "pk": 1004,
    "name": "Stinson / Montpellier",
    "latitude": 45.5040143,
    "longitude": -73.7044269
  },
  {
    "pk": 1006,
    "name": "Place du Canada (Peel / de la Gauchetière)",
    "latitude": 45.4984678,
    "longitude": -73.5684335
  },
  {
    "pk": 1007,
    "name": "Aylmer / Ste-Catherine",
    "latitude": 45.5043468,
    "longitude": -73.5689485
  },
  {
    "pk": 1008,
    "name": "Ste-Catherine / Parthenais",
    "latitude": 45.5262351,
    "longitude": -73.54895
  },
  {
    "pk": 1009,
    "name": "de Lanaudière / du Mont-Royal",
    "latitude": 45.5302211,
    "longitude": -73.5769965
  },
  {
    "pk": 1010,
    "name": "Métro Pie-IX (Pierre-de-Coubertin / de la Salle)",
    "latitude": 45.5552411,
    "longitude": -73.5508221
  },
  {
    "pk": 1016,
    "name": "Parc Howard (de l'Épée / de Liège)",
    "latitude": 45.5616903,
    "longitude": -73.610512
  },
  {
    "pk": 1017,
    "name": "Sabrevois / des Récollets",
    "latitude": 45.5832879,
    "longitude": -73.6327636
  },
  {
    "pk": 1020,
    "name": "Parc Maisonneuve (Viau / Sherbrooke)",
    "latitude": 45.5649368,
    "longitude": -73.5555911
  },
  {
    "pk": 1024,
    "name": "6e avenue / Bélanger",
    "latitude": 45.5545638,
    "longitude": -73.5961568
  },
  {
    "pk": 1025,
    "name": "Marquette / Gilford",
    "latitude": 45.5338507,
    "longitude": -73.5789116
  },
  {
    "pk": 1026,
    "name": "Duchesneau / de Marseille",
    "latitude": 45.6096263,
    "longitude": -73.522739
  },
  {
    "pk": 1027,
    "name": "St-Antoine / de la Montagne",
    "latitude": 45.4953717,
    "longitude": -73.5685891
  },
  {
    "pk": 1033,
    "name": "Parc Baldwin (Fullum / Sherbrooke)",
    "latitude": 45.5340705,
    "longitude": -73.5626507
  },
  {
    "pk": 1034,
    "name": "Parc Père-Marquette (de Lanaudière / de Bellechasse)",
    "latitude": 45.539324,
    "longitude": -73.5958784
  },
  {
    "pk": 1038,
    "name": "Parc Marlborough (Beauzèle / Robichaud)",
    "latitude": 45.5223415,
    "longitude": -73.7216789
  },
  {
    "pk": 1040,
    "name": "Parc Reine-Élizabeth (Penniston / Crawford)",
    "latitude": 45.4391447,
    "longitude": -73.5917366
  },
  {
    "pk": 1041,
    "name": "Parc du Pélican (1ère avenue / Masson)",
    "latitude": 45.5451997,
    "longitude": -73.5764507
  },
  {
    "pk": 1044,
    "name": "Gilford / des Érables",
    "latitude": 45.5375266,
    "longitude": -73.5751244
  },
  {
    "pk": 1048,
    "name": "41e avenue / Victoria",
    "latitude": 45.440347,
    "longitude": -73.7023133
  },
  {
    "pk": 1050,
    "name": "Parc Ivan-Franko (33e avenue / Victoria)",
    "latitude": 45.43746,
    "longitude": -73.6935318
  },
  {
    "pk": 1053,
    "name": "Pratt / Bates",
    "latitude": 45.5169478,
    "longitude": -73.6263156
  },
  {
    "pk": 1054,
    "name": "McCulloch / de la Côte Ste-Catherine",
    "latitude": 45.5157751,
    "longitude": -73.6006093
  },
  {
    "pk": 1055,
    "name": "Parc Sauvé (Balzac / de Bayonne)",
    "latitude": 45.5990861,
    "longitude": -73.6369479
  },
  {
    "pk": 1056,
    "name": "Ste-Catherine / Sanguinet",
    "latitude": 45.5128938,
    "longitude": -73.5612479
  },
  {
    "pk": 1057,
    "name": "de Côme / Jean-Talon",
    "latitude": 45.588303,
    "longitude": -73.5778372
  },
  {
    "pk": 1062,
    "name": "Beurling / Godin",
    "latitude": 45.4479158,
    "longitude": -73.5838187
  },
  {
    "pk": 1068,
    "name": "Métro Fabre (Marquette / Jean-Talon)",
    "latitude": 45.5474078,
    "longitude": -73.6076689
  },
  {
    "pk": 1070,
    "name": "Métro Place-des-Arts (du Président-Kennedy / Jeanne-Mance)",
    "latitude": 45.5082046,
    "longitude": -73.5688144
  },
  {
    "pk": 1071,
    "name": "Letourneux / Ste-Catherine",
    "latitude": 45.5507836,
    "longitude": -73.5341
  },
  {
    "pk": 1072,
    "name": "Métro Jarry (Lajeunesse / Jarry)",
    "latitude": 45.5435597,
    "longitude": -73.627772
  },
  {
    "pk": 1073,
    "name": "Gilford / St-Denis",
    "latitude": 45.5251147,
    "longitude": -73.586006
  },
  {
    "pk": 1076,
    "name": "Durocher / Beaumont",
    "latitude": 45.5280002,
    "longitude": -73.6192358
  },
  {
    "pk": 1077,
    "name": "Marie-Anne / Papineau",
    "latitude": 45.5317737,
    "longitude": -73.5724462
  },
  {
    "pk": 1082,
    "name": "Péloquin / Fleury",
    "latitude": 45.5570222,
    "longitude": -73.6599016
  },
  {
    "pk": 1086,
    "name": "Parc Chopin (Dumouchel / Tessier)",
    "latitude": 45.5707266,
    "longitude": -73.737086
  },
  {
    "pk": 1087,
    "name": "27e avenue / Rosemont",
    "latitude": 45.5636787,
    "longitude": -73.5716045
  },
  {
    "pk": 1091,
    "name": "Durocher / St-Viateur",
    "latitude": 45.5207958,
    "longitude": -73.6032707
  },
  {
    "pk": 1095,
    "name": "Langelier / Marie-Victorin",
    "latitude": 45.6145192,
    "longitude": -73.6122447
  },
  {
    "pk": 1096,
    "name": "Drummond / Sherbrooke",
    "latitude": 45.5003924,
    "longitude": -73.578168
  },
  {
    "pk": 1101,
    "name": "de Rouen / Lespérance",
    "latitude": 45.5386271,
    "longitude": -73.5528392
  },
  {
    "pk": 1103,
    "name": "Parc Wilfrid-Bastien (Lacordaire / des Galets)",
    "latitude": 45.5864002,
    "longitude": -73.5952181
  },
  {
    "pk": 1104,
    "name": "Parc Delorme (Malouin / Laferté)",
    "latitude": 45.5904902,
    "longitude": -73.5902694
  },
  {
    "pk": 1105,
    "name": "Parc St-Laurent (Salk / Thomas-Chapais)",
    "latitude": 45.6062348,
    "longitude": -73.6287838
  },
  {
    "pk": 1107,
    "name": "Parc Beaulac (rue Élizabeth)",
    "latitude": 45.5200557,
    "longitude": -73.6779515
  },
  {
    "pk": 1108,
    "name": "CHSLD St-Michel (8e avenue / Jarry)",
    "latitude": 45.5616903,
    "longitude": -73.610512
  },
  {
    "pk": 1109,
    "name": "Mairie d'arrondissement Montréal-Nord (Hébert / de Charleroi)",
    "latitude": 45.593985,
    "longitude": -73.6376721
  },
  {
    "pk": 1110,
    "name": "Parc Luigi-Pirandello (de Bretagne / Jean-Rivard)",
    "latitude": 45.5794057,
    "longitude": -73.6025888
  },
  {
    "pk": 1111,
    "name": "Parc LaSalle (10e avenue / Victoria)",
    "latitude": 45.4380555,
    "longitude": -73.6727393
  },
  {
    "pk": 1112,
    "name": "Parc Stoney-Point (St-Joseph / 47e avenue)",
    "latitude": 45.4365683,
    "longitude": -73.7083697
  },
  {
    "pk": 1114,
    "name": "Bibliothèque Jean-Corbeil (Goncourt / Place Montrichard)",
    "latitude": 45.6027276,
    "longitude": -73.5579303
  },
  {
    "pk": 1115,
    "name": "Aréna Chaumont (Chaumont / des Ormeaux)",
    "latitude": 45.6109266,
    "longitude": -73.5467345
  },
  {
    "pk": 1116,
    "name": "Parc Chamberland (Dorais / de l'Église)",
    "latitude": 45.502989,
    "longitude": -73.689113
  },
  {
    "pk": 1117,
    "name": "Parc Noel-Nord (Toupin / Keller)",
    "latitude": 45.5175831,
    "longitude": -73.7266141
  },
  {
    "pk": 1118,
    "name": "Parc du Bois-Franc (de l'Équateur / des Andes)",
    "latitude": 45.5131776,
    "longitude": -73.7130609
  },
  {
    "pk": 1119,
    "name": "Parc Grovehill (St-Antoine / Ivan-Franko)",
    "latitude": 45.4398238,
    "longitude": -73.6948782
  },
  {
    "pk": 1120,
    "name": "Parc Kirkland (des Érables / Boyer)",
    "latitude": 45.4460609,
    "longitude": -73.6507995
  },
  {
    "pk": 1121,
    "name": "Parc Painter (Marcotte / Quenneville)",
    "latitude": 45.5286305,
    "longitude": -73.6773124
  },
  {
    "pk": 1123,
    "name": "Bibliothèque d'Ahuntsic (Lajeunesse / Fleury)",
    "latitude": 45.5534001,
    "longitude": -73.6622545
  },
  {
    "pk": 1124,
    "name": "La Tour de Montréal (Pierre-de-Coubertin / Bennett)",
    "latitude": 45.5597053,
    "longitude": -73.5515544
  },
  {
    "pk": 1125,
    "name": "CCI Outremont (Dollard / Durcharme)",
    "latitude": 45.5200191,
    "longitude": -73.6189073
  },
  {
    "pk": 1128,
    "name": "Parc Summerlea (53e avenue / St-Joseph)",
    "latitude": 45.4383671,
    "longitude": -73.7154669
  },
  {
    "pk": 1132,
    "name": "Parc Ottawa (de Belleville / Fleury)",
    "latitude": 45.58116,
    "longitude": -73.6412434
  },
  {
    "pk": 1136,
    "name": "Terminus Le Carrefour (Terry-Fox / Le Carrefour)",
    "latitude": 45.5684203,
    "longitude": -73.7468728
  },
  {
    "pk": 1137,
    "name": "Métro Lionel-Groulx (St-Jacques / Atwater)",
    "latitude": 45.4836285,
    "longitude": -73.5797026
  },
  {
    "pk": 1139,
    "name": "CHU Ste-Justine (de la Côte Ste-Catherine / Hudson)",
    "latitude": 45.5039817,
    "longitude": -73.6228395
  },
  {
    "pk": 1140,
    "name": "Parc St-Laurent (Dutrisac)",
    "latitude": 45.5259138,
    "longitude": -73.6891115
  },
  {
    "pk": 1142,
    "name": "Parc St-Louis (St-Joseph / 34e avenue)",
    "latitude": 45.4328398,
    "longitude": -73.6934915
  },
  {
    "pk": 1147,
    "name": "Fullum / Terrasse Mercure",
    "latitude": 45.5354834,
    "longitude": -73.5659391
  },
  {
    "pk": 1149,
    "name": "Letourneux / Hochelaga",
    "latitude": 45.5546589,
    "longitude": -73.546603
  },
  {
    "pk": 1150,
    "name": "Chambord/ Beaubien",
    "latitude": 45.5399002,
    "longitude": -73.5993621
  },
  {
    "pk": 1152,
    "name": "19e avenue / St-Antoine",
    "latitude": 45.4397787,
    "longitude": -73.6813706
  },
  {
    "pk": 1153,
    "name": "de la Peltrie / de la Côte-des-Neiges",
    "latitude": 45.4997974,
    "longitude": -73.6301753
  },
  {
    "pk": 1156,
    "name": "Everett / Garnier",
    "latitude": 45.5475815,
    "longitude": -73.6122085
  },
  {
    "pk": 1157,
    "name": "Michelet / Jean-Talon",
    "latitude": 45.5762911,
    "longitude": -73.583529
  },
  {
    "pk": 1158,
    "name": "Parc Ferland (Belleherbe / Albanel)",
    "latitude": 45.595768,
    "longitude": -73.5953039
  },
  {
    "pk": 1159,
    "name": "Place du Village (St-Jean-Baptiste / Notre-Dame)",
    "latitude": 45.6400029,
    "longitude": -73.490113
  },
  {
    "pk": 1160,
    "name": "Monk / Biencourt",
    "latitude": 45.4586632,
    "longitude": -73.5960227
  },
  {
    "pk": 1161,
    "name": "Durocher / Sherbrooke",
    "latitude": 45.5070762,
    "longitude": -73.5722852
  },
  {
    "pk": 1162,
    "name": "Beaudry / Ontario",
    "latitude": 45.5214582,
    "longitude": -73.5620499
  },
  {
    "pk": 1164,
    "name": "Bennett / Adam",
    "latitude": 45.5536514,
    "longitude": -73.5341495
  },
  {
    "pk": 1165,
    "name": "Cégep André-Laurendeau (Lapierre)",
    "latitude": 45.4360551,
    "longitude": -73.6057752
  },
  {
    "pk": 1166,
    "name": "Mairie d'arrondissement LaSalle (Dupras / Jeannette)",
    "latitude": 45.429167,
    "longitude": -73.6628097
  },
  {
    "pk": 1167,
    "name": "Dixie / 54e avenue",
    "latitude": 45.4433803,
    "longitude": -73.7178916
  },
  {
    "pk": 1169,
    "name": "Alexandre-DeSève  / Ontario",
    "latitude": 45.5243588,
    "longitude": -73.5605344
  },
  {
    "pk": 1170,
    "name": "Bloomfied / St-Viateur",
    "latitude": 45.5191037,
    "longitude": -73.6051905
  },
  {
    "pk": 1171,
    "name": "Parc Félix-Leclerc (François-Boivin / St-Zotique)",
    "latitude": 45.591455,
    "longitude": -73.5627553
  },
  {
    "pk": 1173,
    "name": "Métro de la Concorde (Léo-Lacombe)",
    "latitude": 45.5604899,
    "longitude": -73.7091851
  },
  {
    "pk": 1174,
    "name": "Parc Henri-Dunant (Léger / Henri-Dunant)",
    "latitude": 45.5684396,
    "longitude": -73.6752021
  },
  {
    "pk": 1175,
    "name": "du Parc-Lafontaine / Rachel",
    "latitude": 45.5254742,
    "longitude": -73.5743251
  },
  {
    "pk": 1176,
    "name": "Bloomfield / Ball",
    "latitude": 45.5299594,
    "longitude": -73.632946
  },
  {
    "pk": 1178,
    "name": "Marché Jean-Talon (Casgrain / Shamrock)",
    "latitude": 45.5351901,
    "longitude": -73.6154822
  },
  {
    "pk": 1179,
    "name": "de l'Hôtel-de-Ville / Ontario",
    "latitude": 45.5135916,
    "longitude": -73.5662556
  },
  {
    "pk": 1180,
    "name": "Chambord / de Castelnau",
    "latitude": 45.5453692,
    "longitude": -73.6117625
  },
  {
    "pk": 1181,
    "name": "Union / Ste-Catherine",
    "latitude": 45.5040272,
    "longitude": -73.5697022
  },
  {
    "pk": 1182,
    "name": "Peel / Ottawa",
    "latitude": 45.4941996,
    "longitude": -73.5599846
  },
  {
    "pk": 1183,
    "name": "HEC (Decelles / Jean-Brillant)",
    "latitude": 45.4977228,
    "longitude": -73.6192533
  },
  {
    "pk": 1185,
    "name": "Wolfe / de la Gauchetière",
    "latitude": 45.5162224,
    "longitude": -73.5529733
  },
  {
    "pk": 1186,
    "name": "Bassin olympique (Chemin du Chenal le Moyne)",
    "latitude": 45.5169025,
    "longitude": -73.5272455
  },
  {
    "pk": 1190,
    "name": "Louisbourg / O'brien",
    "latitude": 45.5306042,
    "longitude": -73.70377
  },
  {
    "pk": 1193,
    "name": "St-Joseph Lachine / 21e avenue",
    "latitude": 45.4335212,
    "longitude": -73.6835432
  },
  {
    "pk": 1194,
    "name": "St-Rémi / Ste Émilie",
    "latitude": 45.4697664,
    "longitude": -73.5892588
  },
  {
    "pk": 1196,
    "name": "de Versailles / St-Jacques",
    "latitude": 45.4927744,
    "longitude": -73.5688573
  },
  {
    "pk": 1198,
    "name": "de Mentana / St-Joseph",
    "latitude": 45.529107,
    "longitude": -73.584803
  },
  {
    "pk": 1199,
    "name": "St-Denis / Ste-Catherine",
    "latitude": 45.5137229,
    "longitude": -73.5603105
  },
  {
    "pk": 1200,
    "name": "de Châteauguay / Ropery",
    "latitude": 45.4793011,
    "longitude": -73.5662945
  },
  {
    "pk": 1201,
    "name": "Parc de l'Hôtel-de-Ville (Laurendeau / Ste-Julie)",
    "latitude": 45.6308738,
    "longitude": -73.4950389
  },
  {
    "pk": 1202,
    "name": "Parc des Vétérans (des Vétérans / Broadway)",
    "latitude": 45.6315812,
    "longitude": -73.5079604
  },
  {
    "pk": 1203,
    "name": "Centre récréatif Édouard-Rivet (Lesage / Notre-Dame)",
    "latitude": 45.6283593,
    "longitude": -73.5000479
  },
  {
    "pk": 1205,
    "name": "Bibliothèque et Complexe aquatique Rosemont (9e avenue / Rosemont)",
    "latitude": 45.5520234,
    "longitude": -73.5817184
  },
  {
    "pk": 1206,
    "name": "Parc Chenier (de l'Aréna / Chenier)",
    "latitude": 45.6024865,
    "longitude": -73.5432905
  },
  {
    "pk": 1214,
    "name": "René-Lévesque / Papineau",
    "latitude": 45.5209208,
    "longitude": -73.5499048
  },
  {
    "pk": 1215,
    "name": "6e avenue / Villeray",
    "latitude": 45.5587396,
    "longitude": -73.6058904
  },
  {
    "pk": 1216,
    "name": "Parc Lalancette (de Rouen / Valois)",
    "latitude": 45.548145,
    "longitude": -73.5471261
  },
  {
    "pk": 1217,
    "name": "Métro Laurier (Berri / Laurier)",
    "latitude": 45.5275891,
    "longitude": -73.5890758
  },
  {
    "pk": 1218,
    "name": "Métro Viau (Viau / Pierre-de-Coubertin)",
    "latitude": 45.5630842,
    "longitude": -73.5481941
  },
  {
    "pk": 1219,
    "name": "Guy / Sainte-Catherine",
    "latitude": 45.4949751,
    "longitude": -73.5777704
  },
  {
    "pk": 1220,
    "name": "Dorion / Sherbrooke",
    "latitude": 45.5293521,
    "longitude": -73.5633184
  },
  {
    "pk": 1221,
    "name": "Parc Joseph-Robin (18e avenue / Everett)",
    "latitude": 45.5648113,
    "longitude": -73.5958041
  },
  {
    "pk": 1222,
    "name": "Mayfield / St-Martin O",
    "latitude": 45.5530175,
    "longitude": -73.7582266
  },
  {
    "pk": 1223,
    "name": "de Chenonceau / Chomedey",
    "latitude": 45.56157,
    "longitude": -73.75448
  },
  {
    "pk": 1224,
    "name": "Gare Montpellier (Muir / de la Côte-Vertu)",
    "latitude": 45.5237405,
    "longitude": -73.6716992
  },
  {
    "pk": 1225,
    "name": "Gare du Ruisseau (Dutrisac / Henri-Bourassa)",
    "latitude": 45.5281437,
    "longitude": -73.6925454
  },
  {
    "pk": 1226,
    "name": "Parc Nicolas-Tillemont (des Érables / Villeray)",
    "latitude": 45.5546365,
    "longitude": -73.6125522
  },
  {
    "pk": 1227,
    "name": "CHSLD Robert Cliche (de Bellechasse / 16e avenue)",
    "latitude": 45.557568,
    "longitude": -73.579191
  },
  {
    "pk": 1228,
    "name": "11e avenue / du Souvenir",
    "latitude": 45.5693391,
    "longitude": -73.7047273
  },
  {
    "pk": 1229,
    "name": "Parc du Mail (Bois de Coulonges / du Mail)",
    "latitude": 45.598335,
    "longitude": -73.5459673
  },
  {
    "pk": 1230,
    "name": "Fabrik8 (Waverly / Jean-Talon)",
    "latitude": 45.5333073,
    "longitude": -73.6208224
  },
  {
    "pk": 1231,
    "name": "Parc Beaubien Outremont (Stuart / St-Viateur)",
    "latitude": 45.5159697,
    "longitude": -73.6082751
  },
  {
    "pk": 1232,
    "name": "Parc Olympique (Pie-IX / Sherbrooke)",
    "latitude": 45.5548245,
    "longitude": -73.5537028
  },
  {
    "pk": 1233,
    "name": "Parc Hébert (Colbert / Provencher)",
    "latitude": 45.5723781,
    "longitude": -73.5937046
  },
  {
    "pk": 1234,
    "name": "Parc Courbertin (Valéry / Perrier)",
    "latitude": 45.5839877,
    "longitude": -73.6080933
  },
  {
    "pk": 1235,
    "name": "Parc Garibaldi (Liénart / Bélanger)",
    "latitude": 45.5864765,
    "longitude": -73.5703969
  },
  {
    "pk": 1236,
    "name": "Alton-Goldbloom / Notre-Dame",
    "latitude": 45.545026,
    "longitude": -73.7378767
  },
  {
    "pk": 1237,
    "name": "Parc Charleroi (Alfred / Louis-Francoeur)",
    "latitude": 45.5995347,
    "longitude": -73.6236025
  },
  {
    "pk": 1238,
    "name": "Parc Aimé-Léonard (Gouin / Ste-Gertrude)",
    "latitude": 45.6083582,
    "longitude": -73.6385062
  },
  {
    "pk": 1239,
    "name": "Parc Maurice-Bélanger (Hébert / Denommée)",
    "latitude": 45.5877138,
    "longitude": -73.6317182
  },
  {
    "pk": 1240,
    "name": "CÉGEP du Vieux-Montréal (Ontario / de l'Hôtel-de-Ville)",
    "latitude": 45.5140122,
    "longitude": -73.5659867
  },
  {
    "pk": 1241,
    "name": "Complexe sportif Claude Robillard (Émile-Journault)",
    "latitude": 45.5529855,
    "longitude": -73.6386477
  },
  {
    "pk": 1242,
    "name": "Gare St-Michel / Montréal-Nord (Pie-IX / 56e)",
    "latitude": 45.5831978,
    "longitude": -73.629787
  },
  {
    "pk": 1243,
    "name": "IUSMM (Georges-Villeneuve)",
    "latitude": 45.5865659,
    "longitude": -73.5293725
  },
  {
    "pk": 1244,
    "name": "Parc Eusèbe-Ménard (Gouin / St-Vital)",
    "latitude": 45.5925395,
    "longitude": -73.6487482
  },
  {
    "pk": 1245,
    "name": "CHSLD Joseph-François-Perrault (St-Michel / Everett)",
    "latitude": 45.5596973,
    "longitude": -73.6014596
  },
  {
    "pk": 1246,
    "name": "Mairie d'arrondissement St-Laurent (Beaudet / Marcel-Laurin)",
    "latitude": 45.5068242,
    "longitude": -73.681848
  },
  {
    "pk": 1247,
    "name": "Bibliothèque du Vieux-St-Laurent (de l'Église / Filiatrault)",
    "latitude": 45.5128433,
    "longitude": -73.6761242
  },
  {
    "pk": 1248,
    "name": "Métro St-Laurent 2 ( de Maisonneuve / St-Laurent)",
    "latitude": 45.5107698,
    "longitude": -73.5649373
  },
  {
    "pk": 1249,
    "name": "du Mans / des Alouettes",
    "latitude": 45.5803349,
    "longitude": -73.6847187
  },
  {
    "pk": 1250,
    "name": "Pierre-Péladeau / du Centropolis",
    "latitude": 45.5625118,
    "longitude": -73.7437065
  },
  {
    "pk": 1251,
    "name": "Jeanne-Mance / St-Martin O",
    "latitude": 45.5574215,
    "longitude": -73.7480604
  },
  {
    "pk": 1252,
    "name": "Parc Armand-Bombardier (Perras / Armand-Bombardier)",
    "latitude": 45.6391233,
    "longitude": -73.5961118
  },
  {
    "pk": 1254,
    "name": "Collège de Rosemont (15e avenue / Beaubien)",
    "latitude": 45.5577499,
    "longitude": -73.5838012
  },
  {
    "pk": 1255,
    "name": "Le Corbusier / St-Martin O",
    "latitude": 45.5650067,
    "longitude": -73.7319054
  },
  {
    "pk": 1256,
    "name": "Métro Cadillac (Cadillac / Sherbrooke)",
    "latitude": 45.5768333,
    "longitude": -73.5464742
  },
  {
    "pk": 1257,
    "name": "McNamara / St-Martin O",
    "latitude": 45.5712036,
    "longitude": -73.7235188
  },
  {
    "pk": 1258,
    "name": "de Grenoble / de Cassis",
    "latitude": 45.5788972,
    "longitude": -73.7049271
  },
  {
    "pk": 1260,
    "name": "Berri /Ste-Catherine",
    "latitude": 45.5146906,
    "longitude": -73.5599014
  },
  {
    "pk": 1261,
    "name": "Préfontaine / Marcel-Pépin",
    "latitude": 45.5436538,
    "longitude": -73.5594206
  },
  {
    "pk": 1263,
    "name": "de la Roche / Marie-Anne",
    "latitude": 45.52766,
    "longitude": -73.576124
  },
  {
    "pk": 1264,
    "name": "Soeurs-Grises / Margueritte d'Youville",
    "latitude": 45.4988464,
    "longitude": -73.5546298
  },
  {
    "pk": 1267,
    "name": "St-Hubert / de Maisonneuve (nord)",
    "latitude": 45.5161321,
    "longitude": -73.5604969
  },
  {
    "pk": 1268,
    "name": "St-Hubert / de Maisonneuve (sud)",
    "latitude": 45.5158684,
    "longitude": -73.5600838
  },
  {
    "pk": 1269,
    "name": "Hochelaga / de l'Assomption",
    "latitude": 45.5668831,
    "longitude": -73.5394382
  },
  {
    "pk": 1270,
    "name": "de Brébeuf / Gilford",
    "latitude": 45.530952,
    "longitude": -73.581585
  },
  {
    "pk": 1271,
    "name": "Métro Plamondon (Carlton / Victoria)",
    "latitude": 45.4953008,
    "longitude": -73.6394939
  },
  {
    "pk": 1272,
    "name": "de Chambly / de Rouen",
    "latitude": 45.5471031,
    "longitude": -73.5489245
  },
  {
    "pk": 1273,
    "name": "Montmorency / Richardson",
    "latitude": 45.4851133,
    "longitude": -73.5604384
  },
  {
    "pk": 1275,
    "name": "de Maisonneuve / Mansfield SE",
    "latitude": 45.5022935,
    "longitude": -73.5733064
  },
  {
    "pk": 1276,
    "name": "BAnQ (Berri)",
    "latitude": 45.5160139,
    "longitude": -73.5629196
  },
  {
    "pk": 1277,
    "name": "de Bellechasse / Pie-IX",
    "latitude": 45.5612927,
    "longitude": -73.5761133
  },
  {
    "pk": 1278,
    "name": "Parc Jeanne-Mance (monument à sir George-Étienne Cartier)",
    "latitude": 45.5148664,
    "longitude": -73.5847586
  },
  {
    "pk": 1279,
    "name": "Place des Festivals ( du Président-Kennedy / de Bleury)",
    "latitude": 45.5076439,
    "longitude": -73.569324
  },
  {
    "pk": 1280,
    "name": "Parc Ernest-Rouleau (Gouin)",
    "latitude": 45.6313127,
    "longitude": -73.616315
  },
  {
    "pk": 1281,
    "name": "St-Laurent / St-Jacques",
    "latitude": 45.5064957,
    "longitude": -73.556494
  },
  {
    "pk": 1282,
    "name": "Hôpital Général Juif (de la Côte-Ste-Catherine / Légaré)",
    "latitude": 45.4962414,
    "longitude": -73.6298387
  },
  {
    "pk": 1283,
    "name": "Irene / St-Jacques",
    "latitude": 45.480133,
    "longitude": -73.5839313
  },
  {
    "pk": 1284,
    "name": "Ste-Catherine / Bishop",
    "latitude": 45.4966367,
    "longitude": -73.5761287
  },
  {
    "pk": 1285,
    "name": "Delisle / George-Vanier",
    "latitude": 45.485974,
    "longitude": -73.5728323
  },
  {
    "pk": 1286,
    "name": "Evans / Clark",
    "latitude": 45.5110837,
    "longitude": -73.5679775
  },
  {
    "pk": 1287,
    "name": "Duluth  / St-Denis",
    "latitude": 45.5208024,
    "longitude": -73.5757989
  },
  {
    "pk": 1288,
    "name": "St-Marc / Ste-Catherine",
    "latitude": 45.4928566,
    "longitude": -73.5806543
  },
  {
    "pk": 1290,
    "name": "de l'Hôtel-de-Ville / Villeneuve",
    "latitude": 45.5234808,
    "longitude": -73.5873276
  },
  {
    "pk": 1291,
    "name": "St-Mathieu / Baile",
    "latitude": 45.4928904,
    "longitude": -73.5776126
  },
  {
    "pk": 1292,
    "name": "d'Iberville / Fleury",
    "latitude": 45.5754318,
    "longitude": -73.6474305
  },
  {
    "pk": 1293,
    "name": "Square Viger (Berri / Viger)",
    "latitude": 45.5122121,
    "longitude": -73.5546289
  },
  {
    "pk": 1294,
    "name": "Bordeaux / Mont-Royal",
    "latitude": 45.5345836,
    "longitude": -73.5731596
  },
  {
    "pk": 1295,
    "name": "Keller / Cousineau",
    "latitude": 45.5235502,
    "longitude": -73.7138857
  },
  {
    "pk": 1296,
    "name": "Métro Beaudry (Beaudry / Ste-Catherine)",
    "latitude": 45.5188845,
    "longitude": -73.5559385
  },
  {
    "pk": 1297,
    "name": "Gare Lachine (Sir George Simpson / 48e avenue)",
    "latitude": 45.4478213,
    "longitude": -73.7109178
  },
  {
    "pk": 1298,
    "name": "Square Nelligan (des Appalaches / Alexis-Nihon)",
    "latitude": 45.5143182,
    "longitude": -73.7079982
  },
  {
    "pk": 1299,
    "name": "Grenet / Poirier",
    "latitude": 45.5187192,
    "longitude": -73.698754
  },
  {
    "pk": 1300,
    "name": "Duluth  / St-Denis",
    "latitude": 45.5208024,
    "longitude": -73.5757989
  }
]